port_name,country,continent,lat,lon,freight_total,risk_mean,risk_median,risk_low,risk_high,hazard
Abbot Point,Australia,Australia,-19.86347273048479,148.08574855224262,3681314199.888782,15570.11390859591,6888.099122572856,0.0,65143.417860338945,operational
Abenra,Denmark,Northern-Europe,55.03613674896311,9.4328687515463,8376747.406295406,0.0,0.0,0.0,0.0,operational
Aberdeen,U.S.A.,North-America,46.95740684544593,-123.84900253523408,1483769822.226669,2086.717657358759,808.1258701906961,76.19037890814664,8600.43792743576,operational
Aberdeen,United Kingdom,Western-Europe,57.13970754858299,-2.071933161301114,4004148945.548536,14059.646668241858,4805.165596087814,0.0,51035.94397590492,operational
Abidjan,Cote d'Ivoire,Africa,5.281131862318626,-4.02121100946266,12251324078.81066,0.0,0.0,0.0,0.0,operational
Abu Zaby,United Arab Emirates,Middle-East,24.50828406031388,54.49529187527073,29610651831.43484,200.98628600667658,0.0,0.0,0.0,operational
Acajutla,El Salvador,Latin-America,13.576548729013748,-89.836482133761,5253653122.459703,3683.059666656332,0.0,0.0,20451.94184994498,operational
Acapulco,Mexico,Latin-America,16.835825834203092,-99.87665273945912,741586286.403381,0.0,0.0,0.0,0.0,operational
Aden,Yemen,Middle-East,12.804423036346144,44.95385819790221,4941006685.31741,0.0,0.0,0.0,0.0,operational
Agadir,Morocco,Africa,30.423327619276023,-9.640954132616516,2812735390.14828,64320.113837036246,42354.82746240904,4328.327308368659,189128.7119713912,operational
Ahus,Sweden,Northern-Europe,55.9281476828496,14.323414129865048,1228976.6093200515,0.1970655016565592,0.0,0.0,0.928084083948415,operational
Aiyion,Greece,Mediterranean,38.33475387391774,21.846493838096944,685651.6495234759,0.9407602448259867,0.2509685905765265,0.0153200621087757,3.908617497949283,operational
Ajman,United Arab Emirates,Middle-East,25.42311078880692,55.45156842093279,3279964.2813337897,10.077062018991185,0.0,0.0,61.65392783114192,operational
Akita-Funakawa Ko,Japan,Asia,39.7625318482917,140.0525074687916,1812829464.9344404,803725.4376196245,333625.94400450785,41867.14478233889,3143551.20392678,operational
Ako,Japan,Asia,34.738439552888686,134.375873722863,206741183.9550199,0.0,0.0,0.0,0.0,operational
Akureyri,Iceland,Northern-Europe,65.69586227498087,-18.07839303021677,864282098.09298,0.0,0.0,0.0,0.0,operational
Al Ahmadi,Yemen,Middle-East,14.861116019377846,42.93012040605359,2685093055.1485147,0.0,0.0,0.0,0.0,operational
Al Aqabah,Jordan,Middle-East,29.45247434218913,34.98133433410047,18087103759.731583,0.0,0.0,0.0,0.0,operational
Al Basrah,Iraq,Middle-East,30.525046506746936,47.841177870216015,3401004.423212985,0.0,0.0,0.0,0.0,operational
Al Burayqah,Libya,Africa,30.41461514978097,19.594087391156314,972980216.8202348,50219.02578520159,35643.23409649615,3311.4707180607675,148835.9275709059,operational
Al Hamriyah LPG Terminal,United Arab Emirates,Middle-East,25.47263067270494,55.49724762578011,5027992390.727257,30.113566899660235,0.0,0.0,0.0,operational
Al Iskandariyh (Alexandria),Egypt,Africa,31.163581730234423,29.836444842191625,32152063143.83327,63319.021790688916,10778.764121946664,0.0,340401.5171387181,operational
Al Jubayl,Saudi Arabia,Middle-East,27.049542718233543,49.68607374636832,39747662884.48353,7242.459307344853,0.0,0.0,43634.485941259074,operational
Al Kuwayt,Kuwait,Middle-East,29.35477517146509,47.93272475961702,10114731531.607786,0.0,0.0,0.0,0.0,operational
Al Ladhiqiyah,Syria,Middle-East,35.530274738611745,35.76567246143961,4213954360.5244513,788.6072986215722,0.0,0.0,5975.757649202127,operational
Al Mukalla,Yemen,Middle-East,14.521045723797029,49.15314874529035,533232089.179051,0.0,0.0,0.0,0.0,operational
Albany,Australia,Australia,-35.04071054851423,117.89734746911876,1238921126.939451,0.0,0.0,0.0,0.0,operational
Alborg,Denmark,Northern-Europe,57.05683243550648,9.94930922442777,2496801387.791015,0.0,0.0,0.0,0.0,operational
Alesund,Norway,Northern-Europe,62.471533880838486,6.167929515082579,650648699.8305849,707.4308336991157,0.0,0.0,4273.405319231378,operational
Algeciras,Spain,Mediterranean,36.15680617658855,-5.419140859532775,25441103317.038124,238777.52535441917,156322.32834052522,28981.84823641122,832770.993507421,operational
Alger,Algeria,Africa,36.76863601010422,3.069702610231199,7932577483.047757,239458.97888236417,85164.90488241424,11739.991954280522,879924.247356464,operational
Aliaga,Turkey,Mediterranean,38.81915416572643,26.9508709797542,2157796430.384777,727921.1262861432,197328.37324609084,7351.492218389189,3233200.8857756737,operational
Alicante,Spain,Mediterranean,38.33102466328418,-0.492673759427888,667637959.2422917,385.0322346841685,34.006483984902104,0.0,1842.3834430289144,operational
Almeria,Spain,Mediterranean,36.8312669051332,-2.471662890355661,911564206.553674,3499.2664187656183,2033.6302297360264,0.0,14348.365578629076,operational
Alofi,Niue,Oceania,-19.045917512159544,-169.9314607121994,5719887.846545455,17.292973434523024,3.6771761794755218,0.0,90.4026176823334,operational
Alotoa,Papua New Guinea,Oceania,-10.323492598056571,150.44893588107448,309763689.31365794,0.0,0.0,0.0,0.0,operational
Altamira,Mexico,Latin-America,22.47789806882248,-97.86425293390072,22085649610.391617,23014.969435025727,14896.817323962683,0.0,83029.11495284052,operational
Alvika,Norway,Northern-Europe,62.47958124215767,6.372233511680491,218626.87322290745,0.03478569795511764,0.0,0.0,0.21013133665276612,operational
Amagasaki,Japan,Asia,34.70276468297633,135.37510434911374,317121650.0982444,0.0,0.0,0.0,0.0,operational
Amamapare,Indonesia,Asia,-4.828913650412673,136.79364632803905,662808457.3175908,0.0,0.0,0.0,0.0,operational
Ambon,Indonesia,Asia,-3.677804133548224,128.17258833590975,417226567.78222567,0.0,0.0,0.0,0.0,operational
Amirabad Port,Iran,Asia,36.85191614327005,53.36607710789007,15911487.995695485,0.0,0.0,0.0,0.0,operational
Ampenan,Indonesia,Asia,-8.64982866652913,116.07102392646912,175035700.00393194,0.0,0.0,0.0,0.0,operational
Amsterdam,Netherlands,Western-Europe,52.408850320974935,4.824715861290412,33905925421.56444,38167.106971549954,0.0,0.0,207986.50980595688,operational
Amuay (Bahia De Amuay),Venezuela,Latin-America,11.746846102434429,-70.21196939062459,11271666455.84422,116563.01850461817,0.0,0.0,595553.0061162143,operational
Anacortes,Canada,North-America,48.49766558025696,-122.62248121594436,889593525.2858313,0.0,0.0,0.0,0.0,operational
Anchorage,U.S.A.,North-America,61.22897250382256,-149.8893491982097,3431892225.7809067,0.0,0.0,0.0,0.0,operational
Ancona,Italy,Mediterranean,43.62001646217766,13.497957350802947,1243285481.488943,9719.598587536146,1513.877986165913,0.0,46265.4874989376,operational
Andoany,Madagascar,Africa,-13.40744670519499,48.21314482326535,37700.32351422368,0.0,0.0,0.0,0.0,operational
Andres (Andres LGN Terminal),Dominican Republic,Caribbean,18.42278739397424,-69.6286454000977,7434021582.144222,2528.7776141744503,1855.682944831498,0.0,7651.022497388749,operational
Annaba,Algeria,Africa,36.8999738698482,7.769912035739972,4565290532.101742,519888.6755788021,240853.28517967983,44416.969047096536,1840622.089472901,operational
Antalya,Turkey,Mediterranean,36.82086688795925,30.60841462171911,838690972.7447922,2302.8390214922406,588.3808748257213,0.0,11969.507314769611,operational
Antisranana,Madagascar,Africa,-12.269448629345638,49.28752977849002,428251325.99361,6.659523236767237,0.0,0.0,59.64681586937124,operational
Antofagasta,Chile,Latin-America,-23.690515601148523,-70.4277708362286,8164138853.182,0.0,0.0,0.0,0.0,operational
Antwerp,Belgium,Western-Europe,51.28517270388428,4.312566811382544,115801785370.07748,26868.82524930149,6395.2246724939505,0.0,140829.86836388434,operational
Anzali Port,Iran,Asia,37.472415563989685,49.51831947409697,5101531.441319667,0.0,0.0,0.0,0.0,operational
Aomori Ko,Japan,Asia,40.84280648271751,140.77663948024073,635919965.2538658,2357.2709054831307,1042.1849652932722,106.72469917971596,8024.508021124062,operational
Apia,Samoa,Oceania,-13.82377114280151,-171.7595182953345,391896339.8907684,664.8398489886109,588.8652309560167,0.0,1432.9115518721128,operational
Apra Harbor,Guam,Oceania,13.451923370457695,144.66149072700182,257367558.6513731,1673.6599320733617,902.346528578618,143.8212308729525,5246.285809884503,operational
Aratu,Brazil,Latin-America,-12.785419158180956,-38.48840818290625,7025825560.652357,1385.5626864477085,0.0,0.0,7144.371439087965,operational
Arawak,Barbados,Caribbean,13.28334360715044,-59.65110700153258,5335060.411270547,0.0,0.0,0.0,0.0,operational
Ardalstangen,Norway,Northern-Europe,61.2340901634341,7.706502598554146,990840538.3051811,0.0,0.0,0.0,0.0,operational
Ardel,Norway,Northern-Europe,59.145882016817694,6.170152751156748,93992.13006587516,0.0,0.0,0.0,0.0,operational
Argentia,Canada,North-America,47.29509220459725,-53.98385491053677,486077384.1267285,1890.247819668013,0.0,0.0,11098.153489623737,operational
Arhus,Denmark,Northern-Europe,56.15059238822851,10.225709086305384,14929152046.540983,0.0,0.0,0.0,0.0,operational
Arkhangels'k,Russia,Northern-Europe,64.54778807264645,40.5642728123505,144535202.3538789,0.0,0.0,0.0,0.0,operational
Arrecife,Spain,Western-Europe,28.966064837555795,-13.532978600899122,105487257.6709346,559.7775217023412,0.0,0.0,3599.324650222477,operational
Arzew El Djedid,Algeria,Africa,35.82293323258116,-0.2503506934612621,21488893993.21576,1200554.92123897,516375.58602759975,90834.76525328882,4294390.926171693,operational
As Suways,Egypt,Africa,29.9468716653464,32.55021426608439,132514039.01854172,266426.3502665006,173592.86067672446,15744.720510862655,810491.5334663645,operational
Ash Shariqah,United Arab Emirates,Middle-East,25.368331586237662,55.381549187478406,4172475870.384455,0.0,0.0,0.0,0.0,operational
Ashdod,Israel,Middle-East,31.825063657053505,34.65078465725762,17697833490.846577,101955.28499301684,46902.4585680472,5848.803206680517,416816.6552431411,operational
Ashqelon,Israel,Middle-East,31.654143153276152,34.51678723614373,1857081597.888392,669018.5768853815,210330.93975236727,15715.43061394347,3067857.1260046074,operational
Aspropirgos,Greece,Mediterranean,38.02902423052401,23.59206424139176,2145237921.569948,561450.47483203,212272.4406131201,18770.650282472205,2245907.7672169963,operational
Astrakhan Port,Russia,Eastern-Europe,46.387331806699606,48.02126952023,170220.7373540623,0.0,0.0,0.0,0.0,operational
Atapupu,Indonesia,Asia,-8.987294204915617,124.86889299750396,1209328.257458692,0.0,0.0,0.0,0.0,operational
Auckland,New Zealand,Oceania,-36.83911438859508,174.78213327873337,10934924413.765654,1147.9623864578068,0.0,0.0,8215.962394677304,operational
Augusta,Italy,Mediterranean,37.20544658964777,15.203603356286484,2806729119.102765,3427.4102249002112,1326.903364484548,0.0,13344.800193591735,operational
Avatiu,Cook Islands,Oceania,-21.19916604947338,-159.77946800695375,81135776.97842564,494.783317687112,249.39988390935244,32.33492794487291,1771.241228506034,operational
Aveiro,Portugal,Western-Europe,40.6459845786362,-8.710654451707518,2048720369.600606,5955841.393467445,2505523.8639340964,378703.9916693203,23455753.09375852,operational
Aviles,Spain,Western-Europe,43.57806639366599,-5.922450399158327,1242463700.8835146,0.0,0.0,0.0,0.0,operational
Avonmouth,United Kingdom,Western-Europe,51.500837745586445,-2.7108477499970576,36506351131.26195,199.20471830930134,0.0,0.0,1878.0591595202284,operational
Az Zawiya,Libya,Africa,32.799725550334536,12.698118747855396,2906342.079128795,9261.874458296974,6084.706966633792,1204.4214378024524,26236.42234828422,operational
Bahai De La Habana,Cuba,Caribbean,23.130061265334334,-82.34306707536754,1608632639.1963782,73128.71390702263,735.0343391945459,0.0,385314.4415568851,operational
Bahia De Las Minas,Panama,Latin-America,9.391166798140205,-79.81607669762758,481400276.9550031,0.0,0.0,0.0,0.0,operational
Bahia De Matarani,Peru,Latin-America,-17.000619421311356,-72.10706734031952,5702920630.413432,0.0,0.0,0.0,0.0,operational
Bahia De Valparaiso,Chile,Latin-America,-33.034397392078574,-71.62022366738996,9289576488.549557,0.0,0.0,0.0,0.0,operational
Bahia Quintero (Ventanas),Chile,Latin-America,-32.76884080628537,-71.50272360867577,8467592220.25273,4770.430555821613,0.0,0.0,27958.43449657981,operational
Bahia San Nicolas,Peru,Latin-America,-15.28678450480592,-75.1886320717127,5019153428.580814,0.0,0.0,0.0,0.0,operational
Bahia San Vicente,Chile,Latin-America,-36.73022771730735,-73.14269308377511,6075518405.345405,39751.92551577388,21332.82496258968,4234.190167053089,155181.14156087537,operational
Baie Comeau,Canada,North-America,49.246123590415614,-68.12736385982839,1757709544.6351235,0.0,0.0,0.0,0.0,operational
Baie De Kouaoua,New Caledonia,Oceania,-21.39272984743525,165.83956642072525,301944.5521355445,0.0,0.0,0.0,0.0,operational
Baie Ugue,New Caledonia,Oceania,-21.145371358927623,165.5567393440599,148220607.0127703,0.0,0.0,0.0,0.0,operational
Bajo Grande,Venezuela,Latin-America,10.514050921510307,-71.61716538792605,3938060353.9311695,6560369.072655756,108275.8381108251,0.0,39197147.02749558,operational
Bakar,Croatia,Mediterranean,45.28337528913895,14.55181856171196,63377976.99177227,12.435573346323526,0.0,0.0,70.04238170650511,operational
Balboa,Panama,Latin-America,8.955811099625459,-79.56989029761058,7332370996.015559,251.9856666637784,0.0,0.0,1782.531055384468,operational
Balikpapa,Indonesia,Asia,-1.195332481417048,116.77157337854771,11633413470.20017,0.0,0.0,0.0,0.0,operational
Baltimore,U.S.A.,North-America,39.22455261974271,-76.5451050441524,81249912660.06557,107599.12809459418,12736.041341740074,0.0,528958.489718839,operational
Baltiysk,Russia,Eastern-Europe,54.64108032078556,19.91048457537416,505842087.44139,1802.251711174319,244.12121459689644,0.0,8883.439075885648,operational
Bamdar-E Pars Terminal,Iran,Middle-East,27.709460242592407,52.24551002097419,2614989396.228956,0.0,0.0,0.0,0.0,operational
Bamdar-E Shahid Reajie,Iran,Middle-East,27.110307609455344,56.07150590839976,31171937222.439102,0.0,0.0,0.0,0.0,operational
Bandar Abbas,Iran,Middle-East,27.151730296641272,56.22504888943823,294828338.26931626,0.0,0.0,0.0,0.0,operational
Bandar Khomeyni,Iran,Middle-East,30.451981895043424,49.11802313978429,27409817253.73217,326.9112542383821,0.0,0.0,0.0,operational
Bandirma,Turkey,Mediterranean,40.36907724270191,27.94452064366464,1239807525.1819134,32006.3574218523,12631.053875831662,1563.6035241905868,115632.28281806834,operational
Banghazi,Libya,Africa,32.107913390356,20.050028953500423,2990406219.063139,135289.08142658207,69903.70317550765,11014.267468861235,438813.5909645764,operational
Bangkok,Thailand,Asia,13.62274380562763,100.5696628599038,62514171627.39116,0.0,0.0,0.0,0.0,operational
Banjarmasin,Indonesia,Asia,-3.2957360662389203,114.54779856003636,90036718.99022421,0.0,0.0,0.0,0.0,operational
Banjul,Gambia,Africa,13.44771943408542,-16.570580660320303,1004496509.3636024,103286.39386791349,17883.420084724014,804.8888108533741,466824.6325117185,operational
Banten,Indonesia,Asia,-6.015676189777397,105.9531601631994,16178538253.175217,0.0,0.0,0.0,0.0,operational
Banzart,Tunisia,Africa,37.26775992180114,9.871554887911458,4132261541.376434,204884.16006113603,119373.7903511389,11524.902626574918,623667.5155506012,operational
Bar,Montenegro,Mediterranean,42.093249075541536,19.082994856939983,545768694.6334206,84.47071737900855,0.0,0.0,458.330663799339,operational
Barbor's Point,U.S.A.,North-America,21.29918896875093,-158.10352783446646,1607244693.2001746,10010.573728312957,4365.258996674662,325.3219494692516,40908.733741579126,operational
Barcelona,Spain,Mediterranean,41.33624987446933,2.1619328258934365,33657940494.579723,22100.46248805799,10116.840612953984,0.0,86753.2111631422,operational
Bari,Italy,Mediterranean,41.13619743138477,16.86153494567936,1217887749.7426264,2966.3920845680664,1416.8380621795268,0.0,12124.95575099092,operational
Barranquilla,Colombia,Latin-America,10.970999064058816,-74.75833563179354,6269770102.37796,0.0,0.0,0.0,0.0,operational
Barry,United Kingdom,Western-Europe,51.39871419714471,-3.260302462145157,409800147.6827883,7.100970805277121,0.0,0.0,70.14240194022598,operational
Basseterre,Saint Kitts and Nevis,Caribbean,17.2886127448879,-62.71385254784511,207098345.5165745,334.81776035209595,170.57482448409758,36.17780883592211,979.6292992783416,operational
Basuo,China,Asia,19.08852707633904,108.6341879281954,343714774.97782826,1116.1550607199101,517.1823644992471,0.0,3852.373203745506,operational
Bata,Equatorial Guinea,Africa,1.8274492719613664,9.738561443391198,827802478.67594,0.0,0.0,0.0,0.0,operational
Batangas City,Philippines,Asia,13.737286124600333,121.01242072813226,9232441434.57556,0.0,0.0,0.0,0.0,operational
Baton Rouge,U.S.A.,North-America,30.437949700121244,-91.20527053196848,6825598865.067888,1921050.8751701133,385550.9646704459,14523.98992084357,9256493.094317686,operational
Batumi,Georgia,Eastern-Europe,41.65431207872545,41.653185351596754,1015331813.5154012,54.93006479975812,0.0,0.0,502.21295186988266,operational
Baubau,Indonesia,Asia,-5.4902905961069255,122.58612896519938,369287964.171821,0.0,0.0,0.0,0.0,operational
Bay City,U.S.A.,North-America,43.61737278810567,-83.84453295934836,2771.282525153528,0.0021255953919887666,0.0003598267268647,0.0,0.0102924597006418,operational
Bayonne,France,Western-Europe,43.516378384877,-1.500052653200647,2556503444.793134,2614.2559516399474,1585.607145987989,0.0,9252.866919835556,operational
Bayrut,Lebanon,Middle-East,33.915669317148925,35.5586102562549,12191078014.823675,0.0,0.0,0.0,0.0,operational
Bayuquan,China,Asia,40.28418662767342,122.0605665080603,29868840767.38926,46465.13526877771,0.0,0.0,277935.5088941158,operational
Beaumont,U.S.A.,North-America,30.04670699587936,-94.02562824672783,19399976521.78103,1602918.4125785804,273396.4589663346,18790.023338764124,7783271.170648084,operational
Bedyansk,Ukraine,Eastern-Europe,46.74832294167254,36.77750401495035,1043149870.979731,24924.92496216029,4395.45591920196,623.4829007430318,139767.32280598002,operational
Beihai,China,Asia,21.456025197499454,109.08670368166548,4818801443.469374,99716.14730834425,34433.7017143814,5258.422787559285,419878.1408783024,operational
Beira,Mozambique,Africa,-19.82495440063514,34.83531412554788,3083245351.252549,0.0,0.0,0.0,0.0,operational
Bejaia,Algeria,Africa,36.74969834363214,5.090464736680983,8604275662.601278,154884.10382175722,82375.9439364615,6591.955241945872,521151.2721775386,operational
Belawan,Indonesia,Asia,3.7914014579345534,98.70527774837986,4864968110.892066,0.0,0.0,0.0,0.0,operational
Belem,Brazil,Latin-America,-1.4686199504270077,-48.57640840306025,23844796423.1589,1858426.8286678814,3957.5976502656795,0.0,10229040.12017519,operational
Belfast,United Kingdom,Western-Europe,54.62132262630101,-5.890026365691502,19731528096.610622,0.0,0.0,0.0,0.0,operational
Belize City,Belize,Latin-America,17.473729005487588,-88.19845995922886,640078958.6828514,440.1385053833048,149.24412225692515,0.0,2309.5898852415967,operational
Bellingham,U.S.A.,North-America,48.75118606116092,-122.50348819440325,23968728.69647532,0.0,0.0,0.0,0.0,operational
Benicia,U.S.A.,North-America,38.04347681813911,-122.13780997472772,163106.10423064834,1.8591912918328013,0.8764958359794701,0.1458351295475915,6.238490174836123,operational
Benoa,Indonesia,Asia,-8.746469477840975,115.2126767068095,246937516.31934908,0.0,0.0,0.0,0.0,operational
Berbera,Somalia,Africa,10.443225787191512,44.99728566977974,1386861469.4040482,852.1873632245043,0.0,0.0,6247.205420956352,operational
Bergen,Norway,Northern-Europe,60.39665740735552,5.310108610201816,3252860.071246582,0.0,0.0,0.0,0.0,operational
Big Creek,Belize,Latin-America,16.511999635449577,-88.40317738875554,133823779.89571218,412.2464850987221,55.73881006549743,0.0,2127.329015610665,operational
Bintulu Port,Malaysia,Asia,3.256588919484861,113.06482939679664,4524677977.994516,0.0,0.0,0.0,0.0,operational
Bissau,Guinea-Bissau,Africa,11.854750910573886,-15.584228546477194,501197545.7969386,1211202.7146513194,272487.96789278864,5087.342834401084,5477165.183197701,operational
Bitung,Indonesia,Asia,1.4400132723443129,125.18637789912322,2573354438.4588084,0.0,0.0,0.0,0.0,operational
Blanglancang,Indonesia,Asia,5.241371740436972,97.0392352657824,60524.2747324032,0.0,0.0,0.0,0.0,operational
Bluff Harbor,New Zealand,Oceania,-46.59999991636169,168.34426330493557,2374316008.4306054,10678.617024125357,0.0,0.0,69049.56850165124,operational
Bohai Bay,China,Asia,38.342037683114135,117.87922664605438,14135029738.57159,74329.81686044774,38531.000553949336,0.0,271731.2954707845,operational
Bonny,Nigeria,Africa,4.422045265620172,7.144895557670569,21037734420.634865,2710.785401243861,0.0,0.0,14324.611361433608,operational
Bontang LNG Terminal,Indonesia,Asia,0.0942901339275785,117.4957982215337,7879434714.737483,0.0,0.0,0.0,0.0,operational
Boosaaso,Somalia,Africa,11.291516864129385,49.17824612751278,97558148.47005448,0.0,0.0,0.0,0.0,operational
Bordeaux,France,Western-Europe,44.94920145935848,-0.5483973603221867,2630173357.0573325,22698.78477571617,12824.621535127948,1114.1264382072354,73109.69252556485,operational
Boston,U.S.A.,North-America,42.36447938612398,-71.02470171864819,17048245490.344938,84376.6622237875,57538.31624344379,12552.325635018711,247054.34552208617,operational
Boston,United Kingdom,Western-Europe,52.96935907679779,-0.0190423848665498,401264.9864516273,0.000503850556088562,0.0,0.0,0.0,operational
Botany Bay,Australia,Australia,-33.987422648555096,151.21471617970263,25422505801.064644,25605.2278157045,0.0,0.0,127334.77474349344,operational
Botas,Turkey,Mediterranean,36.85416475927671,35.92199802852687,1859491291.812311,1163.1815995030163,0.0,0.0,6697.712317393662,operational
Botas Natural Gas Terminal,Turkey,Mediterranean,40.98723654052166,27.966903756864617,2099219781.7413564,3143.4341294385226,0.0,0.0,18955.657408028434,operational
Brake,Germany,Western-Europe,53.34356424511868,8.490135483344483,16412342375.394947,2624.2203812726293,0.0,0.0,14509.239348661216,operational
Brasil Port,Brazil,Latin-America,-21.860227647441377,-40.99980155417795,416009207.7583213,0.0,0.0,0.0,0.0,operational
Bremen,Germany,Western-Europe,53.0793013860378,8.790488973775506,23645333603.078167,5274.228235260632,1386.5623095608503,0.0,24947.66131597128,operational
Bremerhaven,Germany,Western-Europe,53.55798907425319,8.559532083198208,244440536299.0344,207.5171806651107,0.0,0.0,0.0,operational
Brevik,Norway,Northern-Europe,59.06289917525718,9.696772287862007,1279502411.2245872,0.0,0.0,0.0,0.0,operational
Bridgeport,U.S.A.,North-America,41.15748119446917,-73.17511736612565,1887.949335025576,0.003688637799094377,0.00125820825606735,0.0,0.014906485905841416,operational
Bridgetown,Barbados,Caribbean,13.07275312160023,-59.59681310876612,776918663.7785583,2.582991205993597,0.0,0.0,0.0,operational
Brighton,Trinidad and Tobago,Caribbean,10.247290241404006,-61.63372045524326,106919987.11647876,0.0,0.0,0.0,0.0,operational
Brindisi,Italy,Mediterranean,40.649205852743535,17.97117129060219,2221899286.152572,22138.565037840275,5834.560230467166,354.1304882266811,97271.29083976352,operational
Brisbane,Australia,Australia,-27.393515352987137,153.1558848690757,29990175084.94681,281773.3767279755,186771.75274206544,39416.57838686144,876689.7787297345,operational
Brofjorden,Sweden,Northern-Europe,58.3509747477612,11.42229452689906,7406919059.058623,220.95641773829752,0.0,0.0,2215.560270445003,operational
Broome,Australia,Australia,-18.00224122659371,122.21750039585862,9435.279679710457,0.0006665738649053902,0.0,0.0,0.004305732733277,operational
Brownsville,U.S.A.,North-America,25.98298507017778,-97.30947197502516,5887513394.451304,2823.230685837702,1634.8193033334048,0.0,10574.66882628556,operational
Bruges,Belgium,Western-Europe,51.23273370473043,3.221640142100223,321474538.17224705,75.21570641158281,24.903236337941944,0.0,286.3981558678681,operational
Brunsbuttel Elbahafen,Germany,Western-Europe,53.9029261017224,9.169135518250874,63507746.35780077,1.2951886608397305,0.0,0.0,7.461899188866761,operational
Brunswick,U.S.A.,North-America,31.12464789058756,-81.51484037247096,21264881929.45072,177757.95932151875,26669.87738682738,0.0,841341.9325786002,operational
Buchanan,Liberia,Africa,5.8593994962449365,-10.054221498095409,1104235920.1444108,0.0,0.0,0.0,0.0,operational
Buco,Philippines,Asia,8.517433824441355,124.74609031208108,5315819.649214009,0.0,0.0,0.0,0.0,operational
Buenaventura,Colombia,Latin-America,3.8761035986711248,-77.06200730243155,16739270468.40542,8.502005542687408,0.0,0.0,0.0,operational
Buenos Aires,Argentina,Latin-America,-34.611026927300315,-58.35493073863682,27382610698.71772,17641.629953779448,0.0,0.0,76023.83576808966,operational
Buffington,U.S.A.,North-America,41.63961807435646,-87.40834116520354,727.5118833288989,0.0007169459263339595,0.0002631859528294,0.0,0.0027098545492815,operational
Buka,Papua New Guinea,Oceania,-5.431574457231742,154.677592059784,41074796.722153775,0.0,0.0,0.0,0.0,operational
Bukhta Vanino,Russia,Eastern-Europe,49.0502006227882,140.29612144879457,14897960089.111868,287494.95794849354,18210.469195426856,0.0,1526700.4649464246,operational
Bukhta nagayeva (Nagadan),Russia,Eastern-Europe,59.5601316276569,150.72895932811642,31703.89411444016,0.386484306324682,0.06861820495245115,0.0,2.013668598562438,operational
Bullen Baai,Curacao,Caribbean,12.188669470639937,-69.0217140529181,9343679.36102579,0.0,0.0,0.0,0.0,operational
Bunbury,Australia,Australia,-33.30725261606007,115.66213463294056,4400160303.453911,0.0,0.0,0.0,0.0,operational
Bur Safago,Egypt,Africa,26.71178346436033,33.94036109702331,1375356910.4720242,2445828.950790099,497865.75362673786,4747.949259778482,11205474.927769974,operational
Bur Said (Port Said),Egypt,Africa,31.25214147681517,32.310665815141064,9381026916.167011,5581.754818047174,2697.385604461786,314.9977867961752,24984.89478221688,operational
Burgas,Bulgaria,Eastern-Europe,42.464163144145466,27.491662543079865,10414351006.648588,10144.54360388725,5070.98179137984,0.0,43841.514149968,operational
Burnie,Australia,Australia,-41.05425931911664,145.91075253567715,938246965.9710332,154.07860821319252,0.0,0.0,925.3842484577609,operational
Burns Harbor,U.S.A.,North-America,41.63392655651917,-87.1446218622191,782930366.6185362,1117.8182187057428,339.6785129889917,0.0,4382.670045213446,operational
Bushehr,Iran,Middle-East,28.992780957453785,50.83874828979714,1149271252.5854976,0.0,0.0,0.0,0.0,operational
Butinge Oil Terminal,Lithuania,Eastern-Europe,56.04802973637048,20.955661793937487,89770234.36944957,106313.07220938735,35971.90220201628,3610.434920468421,455348.4223589038,operational
Butuan City,Philippines,Asia,9.276937495746392,125.505604996824,902756.361036848,0.0,0.0,0.0,0.0,operational
Cabanas,Cuba,Caribbean,22.6786201894372,-83.96804651759855,4878.5282556703205,0.0005871749696970011,0.0,0.0,0.00290630832613698,operational
Cabedelo,Brazil,Latin-America,-6.973846198234029,-34.83909460828016,22805.02416307317,0.0,0.0,0.0,0.0,operational
Cadiz,Spain,Western-Europe,36.51863696548217,-6.26457637733516,1312566955.1691797,3372.4606568915315,1042.7425318712887,0.0,15686.034252236524,operational
Cagatan De Oro,Philippines,Asia,8.490245481975455,124.68460576318552,3596237.412032702,0.0,0.0,0.0,0.0,operational
Cagliari,Italy,Mediterranean,39.19452237153031,9.077001080457933,2396533649.289818,29535.296302198993,8432.706175665571,267.401474837859,119314.49326649889,operational
Cairns,Australia,Australia,-16.927841947563998,145.7857185186127,1451126208.2362504,0.0,0.0,0.0,0.0,operational
Calabar,Nigeria,Africa,4.966983625413345,8.299691758062119,2911929967.1837573,824123.5898747359,122201.00210676952,419.004126048674,4172159.3482001247,operational
Calais,France,Western-Europe,50.96561800299368,1.858433754148016,1187326162.5638974,5881.28548531759,0.0,0.0,41980.40500002276,operational
Calcutta,India,Asia,22.54296727665667,88.30388019544425,2294219427.984273,0.0,0.0,0.0,0.0,operational
Caleta Patillos,Chile,Latin-America,-20.77677042548477,-70.19304529184716,8017107800.763902,0.0,0.0,0.0,0.0,operational
Calumet Harbor,U.S.A.,North-America,41.68255858019496,-87.54727340130309,787646102.4542718,995.3992721706971,365.4042742547995,0.0,3762.330110216355,operational
Campana,Argentina,Latin-America,-34.15719684138152,-58.94202790871277,6797811030.486568,221670.87676001637,79622.16581223576,1984.5050295312008,885486.6829443064,operational
Canaport (St. John),Canada,North-America,45.19633433063257,-65.9850921802972,2220391989.775207,993526.9097505801,304687.7068174819,26576.51940348953,4740997.827024658,operational
Canaveral Harbor,U.S.A.,North-America,28.394847551633685,-80.59866420649936,4369285031.289133,8464.369498404714,1477.3298369199474,443.84967634005193,34632.79227084213,operational
Cang Doosan Vina,Vietnam,Asia,15.40717113535367,108.79229972496896,9469244.04352164,7.505327423793806,6.847454510628356,2.590526637449339,13.667339253603854,operational
Cap Haitien,Haiti,Caribbean,19.768389939762983,-72.19906143403037,236086162.684376,1054.6684045887316,835.1857185095153,115.15583330591386,2813.0222623662085,operational
Cape Town,South Africa,Africa,-33.90068863940476,18.440042847222724,14793793405.14445,16742273.409286251,4587336.315471618,362403.1510348229,78045327.16870232,operational
Caracasbaai,Curacao,Caribbean,12.072708910759784,-68.86422024762645,2091079.718006552,0.0,0.0,0.0,0.0,operational
Cardiff,United Kingdom,Western-Europe,51.45532778821769,-3.158256001482387,1996386526.4945724,28.972305321770204,0.0,0.0,286.18440220939124,operational
Cartagena,Colombia,Latin-America,10.336821293751132,-75.52757935359057,18620601365.84486,2031372.8206113041,26317.9958553829,0.0,11095630.65934568,operational
Cartagena,Spain,Mediterranean,37.58211826576507,-0.9742948096079336,7069528259.574306,36580.42604632309,14870.121086015824,0.0,136576.11771948857,operational
Casablanca,Morocco,Africa,33.609899095386844,-7.598852857835814,12810703101.498615,803586.8991129125,372811.238573988,61039.24107241039,2801360.74618367,operational
Castries,Saint Lucia,Caribbean,14.001931342343209,-61.00775833523976,1217551517.7082171,30.10579699265044,0.0,0.0,0.0,operational
Catania,Italy,Mediterranean,37.49658263414998,15.09244136663411,655649982.8187323,79234.8059327732,38973.76805959586,5380.601638583901,265078.5654679063,operational
Cayo Moa Grande,Cuba,Caribbean,20.659240409427195,-74.90162034172158,382908092.2765003,0.3742079248257266,0.0,0.0,0.0,operational
Cebu,Philippines,Asia,10.297805106771015,123.92198621119375,8174742306.980837,0.0,0.0,0.0,0.0,operational
Chaguaramas,Trinidad and Tobago,Caribbean,10.678251863228862,-61.64114698730022,291598767.5909195,0.0,0.0,0.0,0.0,operational
Chan Bahar,Iran,Middle-East,25.30469405954206,60.6058258576521,12207701.473556591,0.6797669205096029,0.0,0.0,4.886738552689284,operational
Changshu,China,Asia,31.760631993803628,120.95726132906684,660149.4609782383,0.0,0.0,0.0,0.0,operational
Changzhou,China,Asia,31.963190969161573,120.00023340581532,657217.2543472579,0.0,0.0,0.0,0.0,operational
Chaozhou,China,Asia,23.56571156801957,117.10323510390415,134953.1152604649,0.02027410875027667,0.0,0.0,0.1147587545823389,operational
Charco Azul,Panama,Latin-America,8.20893446614882,-82.87107356471105,95336.4396788102,0.014501968323187958,0.0,0.0,0.0948448047062502,operational
Charleston,U.S.A.,North-America,32.893243273454615,-79.9202440664904,72331354362.60214,3646116.185957519,1322003.7620855358,124836.65988079856,13886737.427533848,operational
Charlestown,Saint Kitts and Nevis,Caribbean,17.109352944500465,-62.62370090239854,7909156.421840937,7.906980443527159,1.7865562536649662,0.0,30.864344059034966,operational
Chatnam Docks,United Kingdom,Western-Europe,51.401344524909575,0.5469101952241601,1901876482.5888,11.17682983472383,0.0,0.0,76.16606147116227,operational
Chennai (Madras),India,Asia,13.10442856945726,80.30070353315764,25341666364.85996,14973.45523315431,12473.398988833029,0.0,40529.00794378248,operational
Cherry Point,Canada,North-America,48.84683414996107,-122.7290306325892,2094365737.800956,0.0,0.0,0.0,0.0,operational
Chester,U.S.A.,North-America,39.8518493064655,-75.34097675703273,1503128285.2870457,14439.437409402071,4117.216370558324,154.07292536804928,59022.6622495654,operational
Chi-Lung,Taiwan,Asia,25.147372664824378,121.75234767698986,31066932523.26944,134811.68133959387,79313.66551178778,22867.996524086368,409596.27469435136,operational
Chiba Ko,Japan,Asia,35.52137984228452,140.04998279317235,40305637658.69217,1241.130046106352,0.0,0.0,10035.12241694081,operational
Chiriqui Grande,Panama,Latin-America,8.950841301683365,-82.11274371768181,1905531174.5444088,0.0,0.0,0.0,0.0,operational
Chittagong,Bangladesh,Asia,22.28472287089229,91.82223616729938,66731314630.75924,177890.21376337603,103096.89411892236,16034.238897604368,566265.0791523359,operational
Chiwan,China,Asia,19.960948510710303,110.03058715573368,1183307937.6147292,2627.8730574439296,1599.04144194187,0.0,8262.422854739985,operational
Cienfuegos,Cuba,Caribbean,22.15089181316593,-80.47784593382993,1735949634.955197,501458.01592782786,21929.765566108697,25.21801932430601,2916588.659949421,operational
Cilacap,Indonesia,Asia,-7.732600118918459,109.00197413282513,3207884251.894998,3322.494458276995,0.0,0.0,18429.43007418102,operational
Cirebon,Indonesia,Asia,-6.7370902470394896,108.59666675662493,16781531.62730198,0.0,0.0,0.0,0.0,operational
Civitavecchia,Italy,Mediterranean,42.10697384526755,11.773428066538266,12030742248.641048,58592.71602534359,26222.820714742837,0.0,237499.24955162537,operational
Clarkson,Canada,North-America,43.489723448404135,-79.60938671527617,146891407.4937007,2.2376079063885173,0.0,0.0,18.137382959337444,operational
Cleveland,U.S.A.,North-America,41.47759739428567,-81.69498195982194,681864438.0199093,530.1889347069531,122.96362771774804,0.0,2738.0215850668724,operational
Clifton Pier,Bahamas,Caribbean,25.00430319662158,-77.54273840844961,82747210.75729004,347.80244995704095,121.9090555519692,0.0,1494.7217456256774,operational
Coatzacoalcos,Mexico,Latin-America,18.14108586942448,-94.41473487990892,10169009980.382675,978657.0598295127,459380.2327927678,18363.57051506492,3208771.745907673,operational
Colombo,Sri Lanka,Asia,6.9456965177325936,79.83776555553594,24123585085.021927,548.5267061593146,0.0,0.0,4435.097403804559,operational
Colonia,Micronesia,Oceania,9.514968509064548,138.12862737953196,33696443.83894524,72.8888594582651,11.884867408952278,0.0,315.635490525215,operational
Come By Chance Harbor,Canada,North-America,47.77945389482648,-54.016407328260605,3748838169.1341753,26010.645453014236,0.0,0.0,154973.11090134297,operational
Comodoro Rivadavia,Argentina,Latin-America,-46.093452892235774,-67.50437077407159,388952165.5886533,2818.877362981769,620.9633491656552,0.0,13288.042638742343,operational
Conakry,Guinea,Africa,9.51593890042189,-13.714056364980664,5611052288.007363,0.0,0.0,0.0,0.0,operational
Conchan Oil Terminal,Peru,Latin-America,-12.25334136301182,-76.94272203376,2343866340.987849,175255.20378874647,8882.35674701498,0.0,1044987.441868083,operational
Corinto,Nicaragua,Latin-America,12.473339936999952,-87.16245853757798,5140869313.933041,5717.165926372144,0.0,0.0,29965.35839500607,operational
Cork,Ireland,Western-Europe,51.86155358285146,-8.330767581653467,37566541907.36965,19823.597417378158,0.0,0.0,107856.15063404592,operational
Coronei,Chile,Latin-America,-37.03063252528679,-73.15907896145595,7802016069.171753,225271.3627969013,24839.314041065132,0.0,1286165.2493564314,operational
Corpus Christi,U.S.A.,North-America,27.830469274773307,-97.36979124245808,26522579375.25252,17112.419791605607,11352.562763033478,0.0,56443.06924583702,operational
Cotonou,Benin,Africa,6.346151938879477,2.427030381996611,6736101482.673066,0.0,0.0,0.0,0.0,operational
Covenas Offshore Term.,Colombia,Latin-America,9.4899038588053,-75.75345268610646,7941670087.347071,13623.728943705299,0.0,0.0,94381.18083582418,operational
Cueta,Spain,Western-Europe,35.89431841167933,-5.312774637932047,1992486430.1875284,20175.234460461026,4088.818593398767,0.0,107770.01707302574,operational
Cuxhaven,Germany,Western-Europe,53.8646395270741,8.71367426503149,9212825688.58635,1522.8579928612128,0.0,0.0,9498.644723314872,operational
Da Nang,Vietnam,Asia,16.108524077469067,108.22499757484223,16341474567.9116,22509.28072511172,13377.220600086097,2684.7232739986785,79346.33943628336,operational
Daesan Hang,South Korea,Asia,37.02722527937124,126.42105758269965,10478613.10529003,0.014062683627109227,0.0,0.0,0.0,operational
Dahej,India,Asia,21.69713041782022,72.41080264942855,11528715503.293852,0.0,0.0,0.0,0.0,operational
Dakar,Senegal,Africa,14.68231366402776,-17.428023247553146,8011754480.655473,35.78961636330932,0.0,0.0,0.0,operational
Dalian,China,Asia,38.98616040562791,121.75624397670326,89906853244.09361,16187.973505916765,0.0,0.0,46708.12092596518,operational
Damietta,Egypt,Africa,31.470220851164697,31.76336401505416,14897121143.465036,242561.86568339012,88394.53026722159,17873.930296234957,1073164.5945082405,operational
Damman,Saudi Arabia,Middle-East,26.499994929649667,50.20436957949112,31223612260.48121,77.42642152985407,0.0,0.0,0.0,operational
Dampier,Australia,Australia,-20.617064312637265,116.72154733722004,18114730257.27353,1192562.5294212517,953239.2843758098,174037.11263065014,3073071.8391734464,operational
Dandong,China,Asia,39.79900608357087,124.13438777886148,5440481.912372566,0.5353098419682588,0.0,0.0,2.333724061262304,operational
Dar Es Salaam,Tanzania,Africa,-6.833661905174291,39.2956171081445,12028412901.308657,0.0,0.0,0.0,0.0,operational
Daru,Papua New Guinea,Oceania,-9.054556666166777,143.21579381473856,9718897.520378528,0.0,0.0,0.0,0.0,operational
Darwin,Australia,Australia,-12.489325613127,130.8676967127785,4378257215.742966,0.0,0.0,0.0,0.0,operational
Davao,Philippines,Asia,7.221210622366022,125.66803521758536,26519067935.8118,0.0,0.0,0.0,0.0,operational
Davisville Depot,U.S.A.,North-America,41.613408974767225,-71.40845360775016,9074912925.051723,231.8859991919754,0.0,0.0,1136.045503619576,operational
De Kastri,Russia,Eastern-Europe,51.47340695610895,140.7820750851399,9860.53119792797,0.0,0.0,0.0,0.0,operational
Delfzijl,Netherlands,Western-Europe,53.318284318643215,6.962175616371235,1443992117.564727,156.41995724161274,0.0,0.0,982.2787432050216,operational
Delta Terminal,Turkey,Mediterranean,36.83939848555146,36.14875191732878,347499194.29481614,759.3763297699481,0.0,0.0,4374.141785856114,operational
Derince Burnu,Turkey,Mediterranean,40.762145217796,29.791888645458563,18885075312.534843,52460.35615012989,22887.740770673325,1489.9930950060923,209231.901523323,operational
Devonport,Australia,Australia,-41.18184160182466,146.36394494450664,537774638.5156752,0.0,0.0,0.0,0.0,operational
Dhaka,Bangladesh,Asia,23.661660311333943,90.45207404946326,4838547.8595207175,0.0,0.0,0.0,0.0,operational
Dhamara Port,India,Asia,20.82127593772724,86.96441572265493,516714.7876891412,0.3401642932105832,0.2139491753184804,0.0,1.2147582542247122,operational
Dhekelia,Cyprus,Mediterranean,34.7192901285389,33.31910338971465,81905311.03125139,60.509148975750975,11.3978146095924,0.0,269.5585721910825,operational
Djen-Djen,Algeria,Africa,36.826315741842286,5.892686604277558,7521402846.729187,1695594.7984976068,1091160.6779700434,171327.4803218223,5032871.891348246,operational
Djibouti,Djibouti,Africa,11.607245679499746,43.10467497069612,3837945575.332279,0.0,0.0,0.0,0.0,operational
Djupivogur,Iceland,Northern-Europe,64.66219019974245,-14.284368629002472,60096522.91551221,14850.593508436452,6645.9856784634585,372.14315621644914,57100.264909835,operational
Djupviken,Norway,Northern-Europe,63.74427950673218,11.335857150779,1139630.3021604728,0.0,0.0,0.0,0.0,operational
Donggala,Indonesia,Asia,-0.7456475198875517,119.81747969009554,380372.132857916,0.0,0.0,0.0,0.0,operational
Dos Bocas Terminal,Mexico,Latin-America,18.44155161928273,-93.20051484575498,585258272.2685288,131120.05423274395,18631.88906096486,184.95944918945287,642445.5705309391,operational
Douala,Cameroon,Africa,4.057133316943943,9.68397577484217,6806925935.060041,14067.185923005538,0.0,0.0,89803.08753072345,operational
Dover Harbor,United Kingdom,Western-Europe,51.12111390302477,1.326885417591786,1501417156.9277225,30808.265810346085,1035.3857813431532,0.0,222011.56887860788,operational
Drammen,Norway,Northern-Europe,59.739835299784,10.244444551951718,7837900991.850628,0.0,0.0,0.0,0.0,operational
Drogheda,Ireland,Western-Europe,53.718956540656976,-6.320252966886747,2356757422.004565,1159.7940762127207,0.0,0.0,5306.958275976916,operational
Duba,Saudi Arabia,Middle-East,27.560626687483943,35.543506161947334,515483216.4011736,0.0,0.0,0.0,0.0,operational
Duba Bulk Plant Tanker Terminal,Saudi Arabia,Middle-East,27.320741776410387,35.73694989251869,476383966.9334186,0.0,0.0,0.0,0.0,operational
Dubayy,United Arab Emirates,Middle-East,25.275528110019504,55.29586184695633,3565100128.458625,33.19712153273755,0.0,0.0,0.0,operational
Dublin,Ireland,Western-Europe,53.34515774916181,-6.205007351926639,37891425607.86128,28607.62884928747,0.0,0.0,106763.0055620925,operational
Dudinka,Russia,Eastern-Europe,69.40673696227077,86.16428897770183,118060.74800744608,11.616488901981944,0.45565543463281755,0.0,70.39290047574052,operational
Dumai,Indonesia,Asia,1.7027621807972455,101.50225403244085,15731382883.158216,0.0,0.0,0.0,0.0,operational
Dunkerque Port Ouest,France,Western-Europe,51.02846997579867,2.268251940953723,27874602072.799065,9443.900978179456,5283.6154909622,0.0,34251.46464173151,operational
Durban,South Africa,Africa,-29.88128191298772,31.02979371826348,50709852976.9411,18918.587613014635,0.0,0.0,86006.41340926074,operational
Durres,Albania,Mediterranean,41.33444363449616,19.42706402978596,1505366306.767163,33.79893723428327,0.0,0.0,239.35336423937653,operational
EL Segundo,U.S.A.,North-America,33.90830907606505,-118.4313244700238,2944130756.3785925,43097.50395766346,23831.14646392385,1963.4162220584683,137179.96193898597,operational
East London,South Africa,Africa,-33.0259934384958,27.9128744627081,5152431427.544903,37272.66034704571,13948.41034873889,2393.7171807584627,143894.41636111046,operational
Eemshaven,Netherlands,Western-Europe,53.446981643406,6.840646616942927,2002945703.108524,64147.151800874606,24814.839732631142,0.0,224905.38691168325,operational
El Grao,Spain,Mediterranean,39.96119213594266,0.0182681153003738,3520032771.186882,2190.466505731576,717.6869272377239,0.0,10368.958718528638,operational
El Guamache,Venezuela,Latin-America,10.857584586839788,-64.03284703857435,530491239.39962685,0.0,0.0,0.0,0.0,operational
El Jorf Lasfar,Morocco,Africa,33.126522599244616,-8.628965920330062,9161259027.34645,4469123.749855567,1551341.3398903068,219033.20081994298,19195803.133783907,operational
El Palito,Venezuela,Latin-America,10.493001663232093,-68.13294848400025,3852392896.336169,4932.244555722821,0.0,0.0,27843.078288914767,operational
El-Adabiya,Egypt,Africa,29.89626701304394,32.47781120642856,4503129557.773888,15274024.566900259,9951949.632468928,902633.1203401547,46464876.995262615,operational
Elevsis,Greece,Mediterranean,38.037178467810094,23.525797877328618,2747136305.0803995,588119.8077834123,222355.5461565044,19662.270727262177,2352590.1278293603,operational
Emden,Germany,Western-Europe,53.35573853829146,7.19886617135378,20434635072.68431,659.713607052027,0.0,0.0,4117.894730771952,operational
Empire,U.S.A.,North-America,43.40658056227046,-124.25210653153545,226389045.73279464,25.474851777688226,0.0,0.0,128.7553492273378,operational
Ende,Indonesia,Asia,-8.85079695895071,121.65370518703664,32584.36022464093,0.0,0.0,0.0,0.0,operational
Ensenada,Mexico,Latin-America,31.81489663698569,-116.60523567851718,12307233032.682804,75872.24725973046,27209.391640707538,1550.672796009938,292302.64766538487,operational
Eregli,Turkey,Eastern-Europe,41.27694642927879,31.411261360755137,1963014494.736144,2029.2578379016657,284.21723722410235,0.0,10738.241272041874,operational
Esbjerg,Denmark,Northern-Europe,55.4654244825063,8.441659670747434,9275957795.578922,2967.1092940568724,0.0,0.0,16350.213717040611,operational
Eskifjordhur,Iceland,Northern-Europe,65.03816457217093,-14.10391989687056,2691533551.650794,0.0,0.0,0.0,0.0,operational
Esmeraldas,Ecuador,Latin-America,0.9899997115255812,-79.64728684930135,976569367.973974,0.0,0.0,0.0,0.0,operational
Esperance,Australia,Australia,-33.86982548251253,121.89646356105446,2456781312.7511163,34125.689211160694,30068.95490065489,11200.07816277346,69433.12358900004,operational
Europa Point,Gibraltar,Mediterranean,36.137935229675904,-5.358443759177452,1225942674.4033208,540.1418480694498,0.0,0.0,3131.0006091496894,operational
Everett,U.S.A.,North-America,47.980631108223854,-122.22497982616044,3509529103.051753,104.40674568812426,50.85183512253654,0.0,415.5291074828711,operational
Ez Zueitina,Libya,Africa,30.89759439895636,20.059926677194824,68729358.22229867,27014.51681854973,13675.553739696577,1622.4213407169532,99025.16834020767,operational
Falkenberg,Sweden,Northern-Europe,56.892447641865786,12.48034428509076,955114137.5870632,7.014545770575649,0.0,0.0,0.0,operational
Falmouth,Jamaica,Caribbean,18.49040995745128,-77.63917792817495,25.9238246317402,1.6354804805017207e-06,3.514847221179081e-08,0.0,8.2226244793579e-06,operational
Falmouth Harbour,United Kingdom,Western-Europe,50.1545049429866,-5.055002092672293,638348948.1205121,3603.0116243390185,1294.449310648361,0.0,14419.8855503577,operational
Famagusta,Turkey,Mediterranean,35.23164501308624,33.93395970763198,62959199.97711244,128.482954083364,75.71941111762723,0.0,472.60061840604897,operational
Fang-Cheng,China,Asia,21.59417209637888,108.36389916040262,18922779538.244167,54763.688605800715,0.0,0.0,333100.89803971763,operational
Faradofay,Madagascar,Africa,-25.065590878177417,46.96990894556124,863656121.4452192,226.69142244323646,181.0087120050827,0.0,804.267538138804,operational
Fawley Marine Terminal,United Kingdom,Western-Europe,50.83470896898369,-1.3246092275919177,62593570513.04244,10531.92993494297,0.0,0.0,54483.173838837254,operational
Felixstow,United Kingdom,Western-Europe,51.95306078647005,1.2850257185978025,115846442646.90088,13322.68766238816,0.0,0.0,64809.74721096315,operational
Ferrol,Spain,Western-Europe,43.47155259982205,-8.2220380285128,2004601828.715216,1033.784770263268,0.0,0.0,5575.427698583382,operational
Figueira Da Foz,Portugal,Western-Europe,40.14462473491896,-8.855522753122937,690869876.5046968,619866.3212167886,231369.50001477124,8160.231544558466,2557420.184414732,operational
Finnart Oil Terminal,United Kingdom,Western-Europe,56.11183726451377,-4.842606143923179,1266786899.3324912,26067.831373040844,10665.630117397162,591.9351025629408,112173.74064520944,operational
Finnsnes,Norway,Northern-Europe,69.21978214495708,18.078184465735685,414632.3999667491,0.0,0.0,0.0,0.0,operational
Flekkefjorden,Norway,Northern-Europe,58.27572182342621,6.884793554708198,1648032563.1258636,0.0,0.0,0.0,0.0,operational
Floro,Norway,Northern-Europe,61.59904588137736,5.043473847218451,909315454.2613488,796807.5531476921,434666.0297702579,22009.15339090348,2494085.8976189224,operational
Fos,France,Mediterranean,43.42877865898252,4.883617581047491,14034506952.899311,1298014.1585300206,526482.1914602646,25309.563835565976,5133657.708649062,operational
Founchon,U.S.A.,North-America,29.127371101408443,-90.20255519700214,354579711.2247781,449.45008793688817,225.3926373738701,0.0,1634.3836120455298,operational
Foynes,Ireland,Western-Europe,52.62147180405903,-9.080662460183166,8041870734.577394,0.0,0.0,0.0,0.0,operational
Fredericia,Denmark,Northern-Europe,55.560462702278265,9.754781473369247,6258748794.323385,208.95098618468705,0.0,0.0,0.0,operational
Frederikshavn,Denmark,Northern-Europe,57.43668766928992,10.54546380815644,990594183.8134696,5297.115898622328,0.0,0.0,37255.90099562294,operational
Fredrikstad,Norway,Northern-Europe,59.18791949721692,10.949605256607631,1552225796.5018494,82649.60903776705,27994.074323436118,2125.257707711166,342739.34529301093,operational
Freeport,Bahamas,Caribbean,26.524441102147847,-78.76827542503159,6059190516.125664,60714.71636124645,43295.84866547056,2809.8399447782854,171442.5103744365,operational
Freeport,U.S.A.,North-America,28.942015286713456,-95.31056723015315,15999273341.698606,99679.54843044557,21264.77888288377,0.0,473620.8908399502,operational
Freeriksvaerk,Denmark,Northern-Europe,55.96279377185284,12.00815476501812,4616942.702077859,2.891339116429991,0.32117242574639016,0.0,12.470060956439662,operational
Freetown,Sierra Leone,Africa,8.487629158250884,-13.1984574105353,1379522686.0979707,0.0,0.0,0.0,0.0,operational
Fremantle,Australia,Australia,-32.146698724458346,115.72799773594208,22074481776.5446,11429008.13490848,3452830.5329986084,227229.95819478494,49299683.94550557,operational
Fujayrah Harbor,United Arab Emirates,Middle-East,25.14775837051201,56.3644226961092,24401016411.31317,931.6264884260745,0.0,0.0,7403.56073340222,operational
Fukui Ko,Japan,Asia,36.1903055547668,136.11866569220143,531813264.657545,121926.27835325958,60362.87170233738,5152.322413484161,468842.1365444509,operational
Fukuyama,Japan,Asia,34.46392527780545,133.4450990039888,13481418976.250652,0.0,0.0,0.0,0.0,operational
Funabashi,Japan,Asia,35.66737133421458,139.96094269228738,3373504270.9100385,11656.456810806965,6699.040996462516,0.0,42029.12925911785,operational
Funafuti Atoll,Tuvalu,Oceania,-8.490426386128341,179.1412534367832,67113926.61688921,49.19017791004783,0.0,0.0,267.10593576291785,operational
Funchal,Portugal,Western-Europe,32.73686500071405,-16.728167299686014,110557882.30896166,21.899277262385944,0.0,0.0,158.02411573674573,operational
Furku,Finland,Northern-Europe,60.43777841270696,22.18533269656328,594596600.1953099,63.04203372656763,0.0,0.0,413.42099696742224,operational
Fushiki-Toyama,Japan,Asia,36.77596229531631,137.14406014496544,2773866307.466028,42241.817111970864,19283.191660243785,1247.4883434722774,191013.7839202596,operational
Fuzhou,China,Asia,25.770769020569592,119.44888567425905,14159989509.241575,60794.839856262595,47740.500941373066,4341.822714504112,161151.19311963854,operational
Gabes,Tunisia,Africa,33.91846027548771,10.103372089588298,2804985912.730303,1104190.6428846654,596358.045299382,132217.41612275183,3614079.160185297,operational
Galeota Point Terminal,Trinidad and Tobago,Caribbean,10.136802840845895,-61.0008436325449,68.1293142454446,0.0,0.0,0.0,0.0,operational
Galveston,U.S.A.,North-America,29.31261002853544,-94.8147372798465,15557401639.47549,5633.132209108003,0.0,0.0,22835.05052367845,operational
Galway,Ireland,Western-Europe,53.26431033782431,-9.045714701719184,863820742.9700332,13.84421194272012,0.0,0.0,125.73947544710944,operational
Gaogang,China,Asia,32.315550083970976,119.81553637506389,3618380.274541813,0.0,0.0,0.0,0.0,operational
Garlston,United Kingdom,Western-Europe,53.302639507435615,-2.901797715172604,11957318305.562649,0.0,0.0,0.0,0.0,operational
Gary,U.S.A.,North-America,41.61725975112223,-87.32174472978474,13813.917920391015,0.027391260942368035,0.0063787295025551,0.0,0.1172999536926621,operational
Gavan Vysotsk,Russia,Eastern-Europe,60.60155670683898,28.56129459959622,4942080948.42742,506.8701743677369,0.0,0.0,0.0,operational
Gavle,Sweden,Northern-Europe,60.69115800035436,17.222084509041075,3084670074.5629086,123.57759166442005,0.0,0.0,914.6744790080922,operational
Gdansk,Poland,Eastern-Europe,54.38520811292142,18.68810423616949,49351464560.48687,13657.752967814802,0.0,0.0,63394.516844966085,operational
Gdynia,Poland,Eastern-Europe,54.53467688024032,18.53315565603749,28438631903.25439,439.4721757124275,0.0,0.0,0.0,operational
Gebig,Brazil,Latin-America,-23.063687852772865,-44.22802492476264,4235657520.505523,2157036.020396235,132646.42311344185,0.0,12626317.36782322,operational
Geelong,Australia,Australia,-38.108439110005726,144.3719294634648,3508039631.71895,0.0,0.0,0.0,0.0,operational
Gela,Italy,Mediterranean,37.03622098309298,14.262424762002864,650810350.5875934,3349.639614816117,603.8569263633419,0.0,15874.269023265268,operational
Gemlik,Turkey,Mediterranean,40.413545583497466,29.10384210573478,8807448991.268484,1519.2850564375692,574.94979822009,0.0,6943.491759911049,operational
General Santos,Philippines,Asia,6.066705781073839,125.15507760766776,5819330254.879941,0.0,0.0,0.0,0.0,operational
Genova,Italy,Mediterranean,44.41225883223548,8.860834273654664,51767518899.8294,611248.9712953613,123393.42462409844,18232.50653349231,3328744.58082238,operational
Georgetown,Bahamas,Caribbean,23.509065267718245,-75.77317372101753,152598.15415395377,0.7082036093079512,0.246378634517757,0.0,2.942415777891431,operational
Georgetown,Cayman Islands,Caribbean,19.29398672684461,-81.38310895680645,1993915070.1156924,1183.040173989255,588.2799003714813,0.0,4294.923795287924,operational
Georgetown,Guyana,Latin-America,6.787169501690144,-58.1779037739903,1047145857.977529,0.0,0.0,0.0,0.0,operational
Geraldton,Australia,Australia,-28.776372412575043,114.61304623287192,3729594035.725113,2404.163865593061,0.0,0.0,10962.73941771896,operational
Ghazaquet,Algeria,Africa,35.103727529437634,-1.864683990337784,1643016261.2096274,72441.68602828342,26883.247118869906,2548.3193193837324,266180.2122477089,operational
Ghent,Belgium,Western-Europe,51.13112416347518,3.770215831018645,17446787813.250206,6208.742364527987,1396.0376940577708,0.0,28815.73811431249,operational
Gijon,Spain,Western-Europe,43.5615307450962,-5.685270603293729,5874821762.174155,0.0,0.0,0.0,0.0,operational
Gioia Tauro,Italy,Mediterranean,38.4514406814403,15.904984759654733,22651859460.81068,55931.207409137394,35530.82020518055,2963.504401363204,181217.5198945698,operational
Gisborne,New Zealand,Oceania,-38.675033303485854,178.02424145853104,1182228190.9703214,526257.2152619198,220462.40636108065,27525.955476385505,2102560.7134899595,operational
Gladstone,Australia,Australia,-23.813450716524105,151.2342588501086,15820932080.256184,0.0,0.0,0.0,0.0,operational
Glasgow,United Kingdom,Western-Europe,55.87037187476327,-4.341387345339348,2979125768.3701787,26461.04253847687,11407.48495266521,1236.9319441023947,108884.9824449221,operational
Glomfjord,Norway,Northern-Europe,66.80965265212211,13.934969066102791,430785.1794417698,0.0,0.0,0.0,0.0,operational
Golcuk Burnu,Turkey,Mediterranean,40.72297179097823,29.867450320255102,4641491126.945103,8497.947292386634,3707.5389681758757,241.36097648949183,33893.053755538334,operational
Golfito,Costa Rica,Latin-America,8.622064139072796,-83.16979407075316,168464873.12560034,0.0,0.0,0.0,0.0,operational
Gomen,New Caledonia,Oceania,-20.751969845765355,164.3549087598248,206947.2269370976,0.13507250102936,0.0723910576515061,0.0,0.5042872952236647,operational
Goole,United Kingdom,Western-Europe,53.69974338770448,-0.8723420040206594,2633528473.9135666,2.1723967693123805,0.0,0.0,0.0,operational
Goose Bay,Canada,North-America,53.33330847082003,-60.38891503642305,25239291.137008395,0.48660715820574485,0.0,0.0,2.898090964921262,operational
Gorgon LNG,Australia,Australia,-20.80230242838165,115.478413125908,817637160.8050399,14244.964223491943,7947.103594241159,0.0,44815.22445706065,operational
Gorontalo,Indonesia,Asia,0.5028208933015501,123.0620072965996,56484.2125614899,0.0,0.0,0.0,0.0,operational
Goteborg,Sweden,Northern-Europe,57.68806676469144,11.868523437182771,32527373496.152157,7245.619178886094,0.0,0.0,39928.69310311756,operational
Gourd Shanzui,China,Asia,39.51676896451509,121.28568484096157,6786006744.285766,80238.5168856336,4854.792003699036,0.0,495105.2233387381,operational
Gove,Australia,Australia,-12.191997988992748,136.69952493260422,1516956188.3072348,5271.380128358441,0.0,0.0,24445.070869370407,operational
Grand Haven,U.S.A.,North-America,43.06166193132464,-86.23111397364951,10645.258526931291,0.0006400581154201205,0.0,0.0,0.002986041873827333,operational
Grand Turk,Turks and Caicos Islands,Caribbean,21.431322566263965,-71.14934172058844,4885044.218518693,10.303735866575858,5.095980072400975,0.0,40.71412262793314,operational
Grangemouth,United Kingdom,Western-Europe,56.03016500140295,-3.684794546475955,8554510226.199496,0.0,0.0,0.0,0.0,operational
Gravesend,United Kingdom,Western-Europe,51.44815639077155,0.3855307808629213,18645992978.76821,157.43536017187827,0.0,0.0,1072.865159253994,operational
Great Yarmouth,United Kingdom,Western-Europe,52.5837681477604,1.730787142222893,2498772990.215874,10219.054321797197,1093.6553336137038,0.0,56005.301502722534,operational
Green Bay,U.S.A.,North-America,44.51544810954734,-88.01624471612466,66748663.242507055,101.22078707081218,42.30925682677842,2.790561322611578,390.1373896951078,operational
Grenaa Havn,Denmark,Northern-Europe,56.41598965093435,10.92682913305752,3013101.32305202,18.41978331182779,0.5956758728982718,0.0,124.46281051801428,operational
Gresik,Indonesia,Asia,-7.144384540853446,112.6602112698871,13502270826.48502,0.0,0.0,0.0,0.0,operational
Grimsby,United Kingdom,Western-Europe,53.57817846852476,-0.0719132898918686,4321609512.07613,56.94819922908648,0.0,0.0,0.0,operational
Guaiba Island Terminal,Brazil,Latin-America,-22.97882873506564,-43.90027443565826,19732287340.510765,146876.9217336323,39122.24379119797,0.0,628087.6161071747,operational
Guangdong Yangjiang Port,China,Asia,21.69382724204774,111.82399444938056,5702274233.837524,0.0,0.0,0.0,0.0,operational
Guangxi Beibu Gulf Port,China,Asia,21.510871620049773,109.54607870650833,1070362.972080483,0.0034715394510535674,0.0,0.0,0.0,operational
Guangzhou,China,Asia,23.070676069997184,113.3635988236669,22456796960.90596,0.0,0.0,0.0,0.0,operational
Guayaquil,Ecuador,Latin-America,-2.250829005178177,-79.9009674925567,20796436840.573868,1729.041593172765,0.0,0.0,12050.542425812642,operational
Guaymas,Mexico,Latin-America,27.90437936704692,-110.86806909497167,5142888112.677436,18185582.206610296,11800096.707386732,1111744.3363936136,56341559.41931049,operational
Gulfport,U.S.A.,North-America,30.350885513829613,-89.08279787381308,881508706.0983484,712.0095519923219,288.2922215701004,0.0,3134.625364074897,operational
Gulluk,Turkey,Mediterranean,37.18315721567714,27.589868446990423,219943624.261432,13535.726768083654,2219.793239767044,19.304189627481986,59969.057313047495,operational
Gwangyang Hang,South Korea,Asia,34.88356092781382,127.71380509471231,57360168731.07487,0.0,0.0,0.0,0.0,operational
Hachinohe Ko,Japan,Asia,40.55005245203152,141.52982806968097,3257039296.906288,452726.5465726272,120833.22672590008,8890.966692976082,2211463.7461363934,operational
Hai Phong,Vietnam,Asia,20.865482408019297,106.71684094159508,67715639809.17957,181831.555405641,148553.11308342387,36380.5377044512,431413.7821241765,operational
Haifa,Israel,Middle-East,32.82184045643268,35.02071922114296,17733629399.862003,223.2671168437141,0.0,0.0,0.0,operational
Haifeng power,China,Asia,22.75044709592244,115.04232412249053,56971.28313910328,0.00041507675674855115,0.0,0.0,0.0,operational
Haikou,China,Asia,20.03438022114653,110.2885765051502,440603897.79364616,93.23142559355271,0.0,0.0,574.3145403654829,operational
Haimen,China,Asia,28.681664062839264,121.47014407628538,180353425.6206036,6341.763879579655,3612.011602205955,0.0,24790.10656955033,operational
Hakata,Japan,Asia,33.6300821328113,130.38542939762246,19335448323.005463,48692.30946460858,11255.55461416584,0.0,225078.03867513343,operational
Hakodate Ko,Japan,Asia,41.79929480338462,140.682528784203,1882430621.2993133,950.486291178573,0.0,0.0,4648.931365797582,operational
Halden,Norway,Northern-Europe,59.11606255843484,11.378322553093223,450022.2061504958,2.3534452866158166,0.4143190653987272,0.0,11.55919906833074,operational
Haldia Port,India,Asia,22.020467505036184,88.07704424841356,17332914625.185318,0.0,0.0,0.0,0.0,operational
Halifax,Canada,North-America,44.66424027934704,-63.578404975855946,25889243008.03396,0.0,0.0,0.0,0.0,operational
Halmstad,Sweden,Northern-Europe,56.66109860982699,12.843995169639571,3389811567.296533,5841.441319416438,1797.575703298683,0.0,24263.251822823913,operational
Hamada Ko,Japan,Asia,34.82317787709878,131.99650686652555,1047448.19714494,0.7965181653922903,0.0,0.0,3.016836148993627,operational
Hamburg,Germany,Western-Europe,53.51233687567541,9.968653019508116,256247132945.25385,55332.85855692435,13462.998650829191,0.0,264602.7418771237,operational
Hamilton,Canada,North-America,43.28200586266023,-79.80843282615506,2195859304.784478,713.1579329280107,109.50859261811597,0.0,3528.979641610204,operational
Hamina,Finland,Northern-Europe,60.53178144627947,27.161465293052007,2307787302.896192,0.0,0.0,0.0,0.0,operational
Hammerfest,Norway,Northern-Europe,70.64850012864224,23.641848724310474,1563482521.032946,12895.396423192626,0.0,0.0,63944.44671308757,operational
Hanko,Finland,Northern-Europe,59.81601319273859,22.93259954722254,1100495729.900618,18403.1293670389,828.3015548263576,0.0,136971.3498140402,operational
Hankow,China,Asia,30.59546775110472,114.45990805779188,123309167.3145619,0.0,0.0,0.0,0.0,operational
Hannan Ko,Japan,Asia,34.45768495335433,135.34506033006394,176087.05565597926,0.0,0.0,0.0,0.0,operational
Harbor Yeweiju,China,Asia,38.085957143351216,118.95820994648376,732735438.8781247,12305.270591910059,5822.528557705225,0.0,47943.65178681984,operational
Harlingen,Netherlands,Western-Europe,53.18266862526003,5.425460885086529,597205669.2369893,12451.276033941998,0.0,0.0,84992.62496581531,operational
Harmac,Canada,North-America,49.14317624401256,-123.863838766506,1808744651.7140136,1.9804618934151785,0.0,0.0,0.0,operational
Haroysund,Norway,Northern-Europe,62.86079146354778,7.007695996823539,862931666.128122,0.0,0.0,0.0,0.0,operational
Haydarpasa,Turkey,Mediterranean,41.00096339994033,29.01521779745681,381065123.6202709,34.7247056042347,0.0,0.0,234.1387549901051,operational
Haypoint,Australia,Australia,-21.262326054471856,149.31445384951795,14833282924.076311,14038.329026529747,0.0,0.0,112997.93047925302,operational
Helsingborg,Sweden,Northern-Europe,56.01908584955418,12.702607114396503,13649759.68248744,9.358429526492758,2.9132700663310067,0.0,35.73060045727326,operational
Helsinki,Finland,Northern-Europe,60.18754706872456,25.034744835032583,2421559107.139689,0.0,0.0,0.0,0.0,operational
Heysham,United Kingdom,Western-Europe,54.033906818244375,-2.916436338171277,544672937.5872517,1714.4635027944923,0.0,0.0,10487.61593521022,operational
Higashi-Harima,Japan,Asia,34.72523348790792,134.82361113496415,15287288037.39294,0.0,0.0,0.0,0.0,operational
Hilo,U.S.A.,North-America,19.743269886771586,-155.0670968769072,131869641.4781338,55.158144481729465,0.0,0.0,329.52597693098323,operational
Himeji,Japan,Asia,34.77271872142368,134.64224078911982,7271468616.116933,0.0,0.0,0.0,0.0,operational
Hiroshima,Japan,Asia,34.34620817128361,132.4521692218322,22760575402.21884,0.0,0.0,0.0,0.0,operational
Hirtshals,Denmark,Northern-Europe,57.59377230990972,9.972200317005916,341348346.9866078,33.038450603211366,0.0,0.0,192.92286696123813,operational
Hitachi,Japan,Asia,36.45099691008194,140.62511335127613,25810450042.85643,1026318.2719955418,453476.6917884769,79363.75375690444,3940210.965198238,operational
Hobart,Australia,Australia,-42.86104374417286,147.33482350849542,1375428022.199419,0.0,0.0,0.0,0.0,operational
Hobro,Denmark,Northern-Europe,56.63872326750803,9.801079080548725,366497.6544460477,0.0011974206388980224,0.0,0.0,0.01020956833140097,operational
Hofu,Japan,Asia,34.01858256245635,131.57820086120026,1388173.137012876,0.0,0.0,0.0,0.0,operational
Homikawa,Japan,Asia,37.04451820109448,137.84605851281938,1378686963.05182,114435.18774153343,31187.891683172584,3683.7687991917924,552295.171073861,operational
Hon Gai,Vietnam,Asia,20.976854770585792,107.05588379388736,14969213574.728884,86927.40809919812,70351.97205461745,4672.84049065841,248619.56376118772,operational
Hong Kong,Hong Kong,Asia,22.35038792164725,114.14842045685543,226608242443.4703,13462.638594975662,0.0,0.0,98332.95125614552,operational
Honiara,Solomon Islands,Oceania,-9.417333482214206,159.9869666492247,232512513.14870453,0.0,0.0,0.0,0.0,operational
Honolulu,U.S.A.,North-America,21.32624508791791,-157.92474751446278,11258175268.74664,1244.257332844471,0.0,0.0,6088.3571832862535,operational
Hopa,Turkey,Eastern-Europe,41.40806666911495,41.434696271940325,46826772.173876405,70.83930878182751,43.45374436483908,0.0,309.0357336573443,operational
Horta,Portugal,Western-Europe,38.52990367947383,-28.62446893343757,11665950.525029808,2213.4427294763186,212.81821509013585,0.0,13307.365240943076,operational
Horten,Norway,Northern-Europe,59.41364856661709,10.491701987956182,147616.9808586246,0.0,0.0,0.0,0.0,operational
Hososhima Ko,Japan,Asia,32.50397766553836,131.67641737392717,259159.89294021245,0.06343104153685014,0.04148887000711695,0.0,0.20617959309494782,operational
Houston,U.S.A.,North-America,29.709638591877344,-95.07446556627032,124557529199.0028,32651229.05867088,8373069.922979047,306630.120799565,138604407.09643245,operational
Hua-Lien Kang,Taiwan,Asia,23.98327583972513,121.63195979851908,931028.6486184098,4.404277627055517,2.792388982629365,0.6352435315648035,13.172423272346348,operational
Huelva,Spain,Western-Europe,37.16277671147754,-6.886173283072676,7579147670.992975,4866969.632316138,2691503.0403852365,291390.75180155004,16329755.21213108,operational
Huizhou,China,Asia,22.74031256016531,114.61228550364484,3663619773.971032,28698.05803468444,21285.4561072942,5211.103070602782,79522.50848965847,operational
Husum,Germany,Western-Europe,54.4754731923866,9.027035188940236,154797044.5599019,142.1059173831085,0.0,0.0,984.7072621932562,operational
Husum,Sweden,Northern-Europe,63.31615409057033,19.159087748312945,2106711944.3420143,678.3490706395502,0.0,0.0,3477.5492059884705,operational
Ijmuiden,Netherlands,Western-Europe,52.46787569264592,4.6078986608769945,9313447604.235825,802260.1423967945,10926.979953230706,0.0,5475603.153853537,operational
Iligan,Philippines,Asia,8.261751385171001,124.241180049437,1024884452.9566268,0.0,0.0,0.0,0.0,operational
Illichivsk,Ukraine,Eastern-Europe,46.33521237987272,30.6554227977392,7785135851.858074,26608.156647462445,0.0,0.0,144618.29043865323,operational
Imabari Ko,Japan,Asia,34.05638247553906,133.0247446052946,106963.88292318086,0.0,0.0,0.0,0.0,operational
Imatra,Finland,Northern-Europe,61.23266019056067,28.80422555667108,485413.6981906577,0.001642097219853335,0.0,0.0,0.008421080299242,operational
Imbituba,Brazil,Latin-America,-28.22915595048604,-48.65332437754567,2074567400.4670548,2714.861544597738,515.3156883583101,0.0,13005.86078232586,operational
Immingham,United Kingdom,Western-Europe,53.64243449106034,-0.2008487103596722,65619903697.15871,2442.0991365417685,0.0,0.0,18357.98491047229,operational
Inchon,South Korea,Asia,37.36170932225954,126.45884943294804,157158970904.8605,121793.09710505618,0.0,0.0,679501.6311053429,operational
Indiana Harbor,U.S.A.,North-America,41.665936992894295,-87.44280180919795,51969.82657350971,0.07324912667055271,0.0268892541105466,0.0,0.276861157652536,operational
Indonesia Morowali Industrial Park,Indonesia,Asia,-2.81340311923013,122.16343355841462,8665344538.102747,0.0,0.0,0.0,0.0,operational
Inkoo,Finland,Northern-Europe,60.0104062443655,23.94196733882955,1100488266.4103942,188.32000336082288,0.0,0.0,1364.5126528459305,operational
Ipswich,United Kingdom,Western-Europe,52.03919402559016,1.159469181957109,6944026057.797914,1004.7486299380679,0.0,0.0,6566.82475950579,operational
Iquique,Chile,Latin-America,-20.203623838366592,-70.15615373585503,5678101624.784188,140.83889701369378,0.0,0.0,0.0,operational
Iraklion,Greece,Mediterranean,35.34545038054156,25.0927907811806,55027365.14826093,2997.585121592506,1221.8084917808894,100.49406442074816,10655.244539296327,operational
Ishikari Bay New Port,Japan,Asia,43.20710566180978,141.28683159864184,1548292186.372907,296120.4988546585,98246.7325451072,8182.071452369801,1359094.5537075447,operational
Ishinomaki Ko,Japan,Asia,38.40768168554068,141.2674552813649,1487091560.696016,1599.3204069116302,797.7412868261769,0.0,5475.655331117554,operational
Iskenderun,Turkey,Mediterranean,36.60628919367149,36.18691007257476,3593053313.274564,0.0,0.0,0.0,0.0,operational
Istanbul,Turkey,Mediterranean,41.03387422125344,28.928912256904304,22951649654.06534,2213.430168241328,0.0,0.0,14924.52635181911,operational
Itajai,Brazil,Latin-America,-26.902238140282925,-48.65252345188132,13146513399.80034,2231.626513433565,0.0,0.0,13791.65092543136,operational
Itaqui,Brazil,Latin-America,-2.621855746963541,-44.36267032626552,28201450928.08379,0.0,0.0,0.0,0.0,operational
Iverness,United Kingdom,Western-Europe,57.49308444497069,-4.236591018766256,146247.67280763722,0.0,0.0,0.0,0.0,operational
Iwakuni Ko,Japan,Asia,34.181816615395086,132.23990099373478,5562861222.88547,0.0,0.0,0.0,0.0,operational
Izhevskoye,Russia,Eastern-Europe,54.68602808953612,20.17815669420857,479891.4610211686,0.18672328934816393,0.03367206232343415,0.0,1.047830590458919,operational
Izmir,Turkey,Mediterranean,38.44249413811505,27.154555502934013,3944739328.5650873,1399996.8829524964,634503.0151620692,47827.127888295,5091061.464440038,operational
JSW Jaigad Port Limited,India,Asia,17.295943032582827,73.21733983189742,4395871063.4971,556.3041038444875,0.0,0.0,5495.094561416755,operational
Jabal Az Zannah-Ruways,United Arab Emirates,Middle-East,24.15710501074664,52.82665732048446,33729356544.460773,0.0,0.0,0.0,0.0,operational
Jacksonville,U.S.A.,North-America,30.381376029329907,-81.54863220201314,40129256468.948784,185680.74916234164,14558.053865904343,0.0,867173.4411386825,operational
Jakarta,Indonesia,Asia,-6.101914823047763,106.89465715247697,74968739652.25468,0.0,0.0,0.0,0.0,operational
Jakobstad,Finland,Northern-Europe,63.71062455011191,22.69020076811306,669322073.8796579,0.0,0.0,0.0,0.0,operational
Jayapura,Indonesia,Asia,-2.536967859793158,140.7264870286022,2324488.9431003686,0.0,0.0,0.0,0.0,operational
Jiangyin,China,Asia,31.939401228345435,120.1554413058036,7271129.921181168,0.0,0.0,0.0,0.0,operational
Jiddah,Saudi Arabia,Middle-East,21.453336765224293,39.16040554615598,47112395654.89436,0.0,0.0,0.0,0.0,operational
Jiddah Oil,Saudi Arabia,Middle-East,20.64483066841008,39.53352762112168,86684.84390635572,0.0,0.0,0.0,0.0,operational
Jimenez,Philippines,Asia,8.330056676743059,123.86089572946894,139817351.46533412,0.0,0.0,0.0,0.0,operational
Jinzhou Wan,China,Asia,40.75950573422145,121.01847867776192,18120638115.569187,1667.79211330959,0.0,0.0,9155.866853263373,operational
Joensuu,Finland,Northern-Europe,62.58175520380113,29.74995054763922,170472.4617375074,0.0,0.0,0.0,0.0,operational
Johor,Malaysia,Asia,1.4457155370673964,103.946539943825,35963032349.56224,0.0,0.0,0.0,0.0,operational
Jose Terminal,Venezuela,Latin-America,10.098565906654752,-64.8703710788836,3292734132.6958733,10708607.157325344,1534720.227599309,180.73563324067277,50965882.126960665,operational
Joutseno,Finland,Northern-Europe,61.13209395314068,28.45890531691416,204106.20427040648,0.0004447514042611708,0.0,0.0,0.0030427135063388,operational
Ju Aymah LPG Terminal,Saudi Arabia,Middle-East,26.87564923644428,50.00250368139483,46727749511.0254,305892.00007111946,259775.75169382777,97204.63060547155,672357.1499941493,operational
Kaba Burnu,Turkey,Mediterranean,40.77306790531253,29.55893509236738,10202953781.568829,90287.62441099748,28446.710311800016,1505.530054739636,383521.1398268051,operational
Kagoshima Ko,Japan,Asia,31.5330466260242,130.5458089372961,1427232283.1997542,0.0,0.0,0.0,0.0,operational
Kakinada Bay,India,Asia,16.96803700414477,82.29700790934642,8067793188.64654,11090.681232742403,0.0,0.0,59727.11315141916,operational
Kaliningrad,Russia,Eastern-Europe,54.70007357923262,20.45369126199346,1276945249.853516,315.2051528308388,0.0,0.0,1600.538594064779,operational
Kalmar,Sweden,Northern-Europe,56.66016842703954,16.369040013097386,1096254.5886049438,0.0,0.0,0.0,0.0,operational
Kalundborg,Denmark,Northern-Europe,55.668074243279904,11.081587831064343,7861552263.839816,68497.65448619271,5214.295688617489,0.0,423300.8959076375,operational
Kamaishi Ko,Japan,Asia,39.26402113423952,141.8975903195104,80680.14583265776,2.137868689747051,1.1874433609751918,0.2111582284738303,8.366116615616214,operational
Kamarajar Port,India,Asia,13.263762622008084,80.3467857641016,15988802654.455544,3315.0543924956064,0.0,0.0,18314.89045562329,operational
Kampong Saom,Cambodia,Asia,10.674444180264803,103.5233448849486,24616265836.046185,0.0,0.0,0.0,0.0,operational
Kamsar,Guinea,Africa,10.639340598585845,-14.622001131510892,5297586.391581109,194054.95728899888,34143.32899720738,1573.933574070688,924000.624597355,operational
Kanazawa,Japan,Asia,36.6162815893274,136.61320565800648,1775222082.0702884,154337.8388971524,75965.18282845215,7339.416722232667,558008.5907042047,operational
Kanda,Japan,Asia,33.82366254603202,131.00473040650672,16566897432.40861,550.4423041025973,0.0,0.0,3976.809137207659,operational
Kandalaksha,Russia,Eastern-Europe,67.13580684582182,32.40867471248912,13167.258155450148,0.0,0.0,0.0,0.0,operational
Kandla,India,Asia,23.01535435600592,70.2247109929842,33303517102.20469,1963.930520973976,0.0,0.0,0.0,operational
Kao Hsiung,Taiwan,Asia,22.572122471214225,120.30930040517684,230587954012.97272,2766048.4633588875,2062147.3066766183,485486.1354157911,8456092.070456728,operational
Karabiga,Turkey,Mediterranean,40.41175743923695,27.16204466280199,1037109.870151364,0.4115802523985461,0.0944868362970935,0.0,1.7176853838862092,operational
Karachi,Pakistan,Asia,24.816297766470854,66.98512362862257,27821714998.090637,0.0,0.0,0.0,0.0,operational
Karaikal Port,India,Asia,10.838830279981233,79.85576598395454,2457109670.650347,0.0,0.0,0.0,0.0,operational
Karatsu,Japan,Asia,33.4777339268404,129.95355406484043,76596.78958422481,0.033242561349275446,0.02344852569959235,0.0052341005194286,0.09786395343217463,operational
Karlshamn,Sweden,Northern-Europe,56.15202224055606,14.808307862296132,3517628305.915528,1928.345747267736,0.0,0.0,8961.095145409414,operational
Karsto,Norway,Northern-Europe,59.271519205627634,5.497806853367826,6749953191.678848,2065.197008609737,0.0,0.0,9193.148620267377,operational
Kashima Ko,Japan,Asia,35.921756936643824,140.68267374859292,28311238488.61198,263236.7362945012,100172.95013359407,0.0,1035263.444427468,operational
Kasim Terminal,Indonesia,Asia,-1.318856057215039,131.02186709279326,48431.8528401072,0.0,0.0,0.0,0.0,operational
Kaskinen,Finland,Northern-Europe,62.35932982784432,21.215864101509435,340403548.6945389,0.0,0.0,0.0,0.0,operational
Kaukas,Finland,Northern-Europe,61.06842777269116,28.241355341700704,212884.83398419392,0.0006329174001815522,0.0,0.0,0.0047642565076845,operational
Kavala,Greece,Mediterranean,40.91746337711808,24.41045352290812,429560793.183235,221.12400927129084,0.0,0.0,970.3426714795872,operational
Kavieng Harbor,Papua New Guinea,Oceania,-2.604957506821268,150.7714132569447,227437716.4534608,0.0,0.0,0.0,0.0,operational
Kavkaz Oil Terminal,Russia,Eastern-Europe,45.33844976361047,36.66767499496356,155576046.02499637,25290.66770336624,3536.040946111465,0.0,140395.18469063175,operational
Kawasaki Ko,Japan,Asia,35.50521099478886,139.74937700235552,28172528523.47593,1155554.6345621247,636293.274022825,215742.31024581232,3761148.982895613,operational
Kemaman Harbor,Malaysia,Asia,4.249323842499969,103.46452871196468,3605304205.164769,0.0,0.0,0.0,0.0,operational
Kemi,Finland,Northern-Europe,65.66299650595296,24.523314138353083,4424847.971561026,0.0,0.0,0.0,0.0,operational
Kendari,Indonesia,Asia,-3.983735223686888,122.60728080642755,54401422.32791112,0.0,0.0,0.0,0.0,operational
Kerch,Ukraine,Eastern-Europe,45.31944127288264,36.462335098071655,42911585.05126908,1968.7205053412729,306.4480939772421,0.0,8739.132087857099,operational
Khawr Fakkan,United Arab Emirates,Middle-East,25.354115654808577,56.36863332712537,698438539.1501377,24.546031523731124,0.0,0.0,195.0653372436468,operational
Khoms,Libya,Africa,32.683782420247496,14.247448501016022,1040433157.3678406,22475.05223243726,6500.427253984409,106.44963096755568,108233.17708464121,operational
Khorramshahr,Iran,Middle-East,30.428156001306824,48.15827753549476,82602475.56722584,0.0,0.0,0.0,0.0,operational
Kiel,Germany,Western-Europe,54.33897566104337,10.158930124173803,1948290462.495506,104.35200227030352,0.0,0.0,566.3105167901487,operational
Kieta,Papua New Guinea,Oceania,-6.2140883431827785,155.64068062726844,23446961.57797563,0.0,0.0,0.0,0.0,operational
Kiire,Japan,Asia,31.387789790905007,130.55093801056023,5143067660.212588,0.0,0.0,0.0,0.0,operational
Kikuma Ko,Japan,Asia,34.053952716716815,132.8591303074905,3865073881.08348,0.0,0.0,0.0,0.0,operational
Kilifi,Kenya,Africa,-3.638051829282086,39.85290812547776,26018.90648796051,0.0,0.0,0.0,0.0,operational
Kimbe,Papua New Guinea,Oceania,-5.531466403018216,150.1762719486963,795813744.7786307,0.0,0.0,0.0,0.0,operational
King Fahd Port,Saudi Arabia,Middle-East,23.89896181789269,38.3257316997168,22022586300.774094,0.0,0.0,0.0,0.0,operational
King's Lynn,United Kingdom,Western-Europe,52.76189504865078,0.3892452093971394,415594.20523907,0.0009485871725985341,0.0,0.0,0.0,operational
Kingston,Jamaica,Caribbean,17.958580244922548,-76.78533233349447,3908816343.196472,322.35169737541116,0.0,0.0,3095.0819284564777,operational
Kingston Upon Hull,United Kingdom,Western-Europe,53.73974523215407,-0.2678925126426418,11901657428.164814,336.3936578923423,0.0,0.0,2528.7710900677653,operational
Kingstown,Saint Vincent and the Grenadines,Caribbean,13.150166300354767,-61.23100499236048,260158771.97643492,0.0,0.0,0.0,0.0,operational
Kinuura Ko,Japan,Asia,34.86173131881988,136.95949022933212,6012808262.690823,72750.38240565105,18404.826962679806,0.0,332952.27906673925,operational
Kiribati,Kiribati,Oceania,1.977749815120723,-157.51139320291412,109447752.63697846,0.0,0.0,0.0,0.0,operational
Kirteh Oil Terminal,Malaysia,Asia,4.583442391113338,103.46300592089702,500216403.41538376,0.0,0.0,0.0,0.0,operational
Kisarazu Ko,Japan,Asia,35.35783669311954,139.86991061476937,15515923570.849705,15315878.046938384,6902597.616178327,1497176.7238574487,58113208.03753389,operational
Klaipeda,Lithuania,Eastern-Europe,55.68480437851739,21.127161907591194,10165622409.636509,26559.003701157984,16472.26647173075,2712.1725409888745,93857.48214881228,operational
Kobe,Japan,Asia,34.665447935331194,135.2202238397928,80518151753.08574,0.0,0.0,0.0,0.0,operational
Kobenhavn,Denmark,Northern-Europe,55.689745273607286,12.623244115681668,5107725540.788704,243.4138539634666,0.0,0.0,1975.0017987141916,operational
Kochi (Chochin),India,Asia,9.96441485843306,76.25942447285712,5992933989.135997,0.0,0.0,0.0,0.0,operational
Kochi Ko,Japan,Asia,33.53112575008093,133.59124728428307,765667571.6657398,5212.970314105902,3482.258772040931,519.1012697991281,15148.682971144954,operational
Koge,Denmark,Northern-Europe,55.458698938667936,12.198448343206923,1031290971.9442848,225.31454404773368,0.0,0.0,1408.4850025858425,operational
Kokkala,Finland,Northern-Europe,63.85877956585785,23.02950219893925,3169142893.343196,0.0,0.0,0.0,0.0,operational
Koko,Nigeria,Africa,5.997462940439359,5.460556265955411,202503143.19862264,70778.74408971399,13089.687044999202,24.18648893820178,341419.4668159477,operational
Kolding,Denmark,Northern-Europe,55.49127752547588,9.490902697918608,1087302144.3443964,2.1495382160521617,0.0,0.0,0.0,operational
Komatsushima,Japan,Asia,34.03965305727432,134.59804207717497,415857.2121675734,5.976417090754202,4.281237830005102,1.3442626186419089,16.389766673544578,operational
Koolan,Australia,Australia,-16.140944950597866,123.74083038756824,177473841.0948903,179.47788033102444,0.0,0.0,1160.5331512622308,operational
Koper,Slovenia,Mediterranean,45.55680786438253,13.73717319580508,7935582774.65963,3572.952339173452,0.0,0.0,21421.169286907367,operational
Korsakov,Russia,Eastern-Europe,46.61922477785278,142.8221264940905,1576987880.9414678,51273.14151203834,22214.11953153984,0.0,185033.29995308607,operational
Kota Baru,Indonesia,Asia,-3.231789320277925,116.24677915766578,4169189536.656665,0.0,0.0,0.0,0.0,operational
Kota Kinabalu,Malaysia,Asia,5.997254078291289,116.07849157015572,888614580.9688879,0.0,0.0,0.0,0.0,operational
Kotka,Finland,Northern-Europe,60.454102388916375,26.92466038696332,5169552606.077013,0.0,0.0,0.0,0.0,operational
Krishnapatnam Port,India,Asia,14.250252044478986,80.12513183610076,14734292802.79304,12178.082822064222,10239.921061374343,0.0,33161.97379534065,operational
Kristiansand,Norway,Northern-Europe,58.14177263137258,8.003841849989836,2346451244.720144,0.0,0.0,0.0,0.0,operational
Kristiansund,Norway,Northern-Europe,63.09308535982997,7.717196789968035,1584231044.5810938,0.0,0.0,0.0,0.0,operational
Kuantan New Port,Malaysia,Asia,3.979349043003944,103.42627680846884,15900491886.131617,0.0,0.0,0.0,0.0,operational
Kuching,Malaysia,Asia,1.591524137958323,110.44755624462452,1833294751.6360984,0.0,0.0,0.0,0.0,operational
Kudamatsu,Japan,Asia,33.99584166596891,131.86867415844077,980067.6215285978,0.0,0.0,0.0,0.0,operational
Kulevi Oil Terminal,Georgia,Eastern-Europe,42.27367523853609,41.639032251255415,275849164.14383614,152.15302227208429,24.35108314128597,0.0,684.9968151524614,operational
Kunda,Estonia,Eastern-Europe,59.5203585786898,26.54454331169052,3928824.22348269,0.0,0.0,0.0,0.0,operational
Kunsan,South Korea,Asia,35.986494724379455,126.61796794913528,8196895727.548115,183573.12960372464,60593.80991161431,2370.0305774742083,854991.0436713014,operational
Kupang,Indonesia,Asia,-10.19664189982535,123.52714991392128,11298422.333651084,0.0,0.0,0.0,0.0,operational
Kure,Japan,Asia,34.225162721449976,132.5729897979332,4130483194.711517,0.0,0.0,0.0,0.0,operational
Kushiro Ko,Japan,Asia,42.99066294537092,144.33590289857247,3088448271.479024,123072.71350084091,80448.65135349978,13571.387602599923,439699.5306476536,operational
Kwajalein,Marshall Islands,Oceania,8.73383829357197,167.73346703714986,2498684008.208109,331.88383365043114,0.0,0.0,1746.0105640646202,operational
LNG Tangguh,Indonesia,Asia,-2.435763597601175,133.1215869241807,829387202.462987,0.0,0.0,0.0,0.0,operational
La Baie (Port Alfred),Canada,North-America,48.36731329054415,-70.85771110463213,286339.23611660855,0.0048393549829114065,0.0,0.0,0.0367055188268187,operational
La Coruna,Spain,Western-Europe,43.35326036794614,-8.442072935583361,4917277029.433752,12295464.267045882,5028447.9575004205,437102.0711193345,48722503.70964847,operational
La Guaira,Venezuela,Latin-America,10.60546664746055,-66.95158142389194,4162438610.9787183,8446.448778966438,0.0,0.0,52112.77654539818,operational
La Libertad,Ecuador,Latin-America,-2.147427207972201,-80.82720224319641,556478845.0929329,94.9680852384394,0.0,0.0,422.0962777419396,operational
La Pallice,France,Western-Europe,46.15812292474633,-1.2272979984191263,10712922037.46212,2258.170977226912,240.91508327353324,0.0,10593.172940394286,operational
La Plata,Argentina,Latin-America,-34.85006898000007,-57.89735059672328,1458447137.231341,557.3024657729361,0.0,0.0,3108.7539227768734,operational
La Spezia,Italy,Mediterranean,44.09125208842204,9.850645667316323,28424164786.951584,31.283707869009042,0.0,0.0,0.0,operational
Lae,Papua New Guinea,Asia,-6.738654366735749,146.9829707997735,1558306097.14531,0.0,0.0,0.0,0.0,operational
Lafarge,Indonesia,Asia,5.451471094423554,95.24248746562014,80722.24700701579,0.0,0.0,0.0,0.0,operational
Lagos,Nigeria,Africa,6.425039204912156,3.336198959941785,36791337687.21657,89350.06065020977,0.0,0.0,509369.535460009,operational
Lahad Datu,Malaysia,Asia,5.016082544943336,118.36233840083308,2500138630.795861,0.0,0.0,0.0,0.0,operational
Lake Charles,U.S.A.,North-America,30.17505468529406,-93.29599462006662,11864716300.586704,1914894.570495964,394638.2540099987,20068.239492376717,9265065.428062266,operational
Lakselv,Norway,Northern-Europe,67.36231132587258,15.584266076913686,727276.3699463372,0.0,0.0,0.0,0.0,operational
Lamu,Kenya,Africa,-2.2030655842733045,40.93562968641479,403688.4727275982,0.0,0.0,0.0,0.0,operational
Lanqiao Port,China,Asia,35.10082478079565,119.33682997699796,38382160360.44701,0.0,0.0,0.0,0.0,operational
Larnaca,Cyprus,Mediterranean,34.936482806057064,33.6471920327898,2239819384.34706,105375.855579542,14599.069768718477,125.19329339026974,507883.975850057,operational
Larvik,Norway,Northern-Europe,59.03887142996575,10.045409958676585,628059.6782627242,7.540176952239302,2.2087186305850848,0.0562962814904803,36.51038486770531,operational
Las Palmas,Spain,Western-Europe,28.04498036332573,-15.396814134057347,21085841573.179714,145647.6097788897,32807.48144817674,0.0,812770.098509207,operational
Lautoka Harbor,Fiji,Oceania,-17.632569671496633,177.40407180080402,905191797.120114,108.73819281442675,0.0,0.0,547.0465065445096,operational
Lazaro Cardenas,Mexico,Latin-America,17.952395882549705,-102.15957973298144,36812700712.28846,85181.03443396145,25374.54553836052,3398.1144038503376,313987.0849212073,operational
Le Legue,France,Western-Europe,48.53327233241664,-2.7260352333539406,251554675.74401495,8.95628931655962,0.0,0.0,53.56862020917952,operational
Leith,United Kingdom,Western-Europe,55.98405696982263,-3.1763438538072646,526758.7507399673,0.0,0.0,0.0,0.0,operational
Lele Harbor,Micronesia,Oceania,5.35278859669428,162.95961417977605,15298137.714821164,0.8472094727765993,0.0,0.0,4.651021591757571,operational
Lerwick,United Kingdom,Western-Europe,60.15670064773103,-1.1515796216949534,45013632.98716427,59163.57723194133,5823.819442697321,31.571612193881244,328386.30027674267,operational
Les Sables D' Olonne,France,Western-Europe,46.496706427811326,-1.7924034246394762,756181362.6798962,655.3476773198914,169.4004687795092,0.0,2531.9839990942683,operational
Levuka,Fiji,Oceania,-17.68742852037415,178.83579923365542,4913.315285452389,0.007209508569813086,0.0,0.0,0.033805506366615355,operational
Lianyungang,China,Asia,34.74395915294917,119.44735552626943,53747567795.79121,886.7070988507905,0.0,0.0,0.0,operational
Liepaja,Latvia,Eastern-Europe,56.5372766046431,21.000278026163613,683848717.4373554,115575.68259977111,55262.36696728118,8817.173831111828,479972.4378620747,operational
Limassol,Cyprus,Mediterranean,34.64794933444826,33.01892413618442,3809290953.981996,88007.83081028608,15265.711848622714,201.854273184272,399771.102172385,operational
Limerick,Ireland,Western-Europe,52.65958544030891,-8.642284884725631,1529242182.2834237,0.0,0.0,0.0,0.0,operational
Linden,Guyana,Latin-America,5.999950690542566,-58.30315890230102,3192878.0916225067,8.487807591573542,0.0908931751873203,0.0,46.76817216990844,operational
Lingkas,Indonesia,Asia,3.3146822700605374,117.56481895296852,269284892.4287197,0.0,0.0,0.0,0.0,operational
Lirquen,Chile,Latin-America,-36.70606417642158,-72.98200378656695,6020106579.579384,1317.841279243086,483.3940688709226,170.96676589666086,6795.734442450972,operational
Lisboa,Portugal,Western-Europe,38.68381637868019,-9.132081034079992,7326783316.121924,2668.7561622074204,0.0,0.0,13497.88949645991,operational
Liverpool,United Kingdom,Western-Europe,53.41989450178822,-3.0184102029511672,39859880025.643486,43919.37736435227,0.0,0.0,212390.6085149276,operational
Livorno,Italy,Mediterranean,43.562922122140456,10.302829714811642,38578615856.47568,353281.52165061247,80530.54780515417,16536.149997992357,1632657.336998175,operational
Lobito,Angola,Africa,-12.337814775342297,13.570700172447944,1288942238.5002084,0.0,0.0,0.0,0.0,operational
Lome,Toga,Africa,6.13870629091435,1.282373042062411,5470093395.40744,123831.59248049125,584.3300104561129,0.0,613590.3022732097,operational
London,United Kingdom,Western-Europe,51.49425575748219,0.097354521471331,25102704292.119125,1391.5858195939713,0.0,0.0,6062.66124240592,operational
London Gateway,United Kingdom,Western-Europe,51.5128479675081,0.496846072499629,12155100.832897073,4.576979660438857,3.792711271003896,0.0,10.703214048209825,operational
Londonderry,United Kingdom,Western-Europe,55.04498715431681,-7.24828154750488,5771641344.841506,0.0,0.0,0.0,0.0,operational
Longkou Gang,China,Asia,37.65664430391606,120.27553432534754,12431469960.1971,11158.722370535574,0.0,0.0,73607.43954301909,operational
Longyan Port,China,Asia,37.40287925785697,122.66516267195225,2951657920.421986,9534.256904405638,1322.1089207540404,0.0,60848.92603694032,operational
Lorient,France,Western-Europe,47.73247953533677,-3.344420786891239,1308474710.6422997,1335.955311970119,0.0,0.0,8953.408044277623,operational
Los Angeles,U.S.A.,North-America,33.74423517564738,-118.2332744617692,203225606129.8245,101056.35949614314,44790.214543793285,0.0,436876.08269084594,operational
Luanda,Angola,Africa,-8.778064712473903,13.268167277698302,27066878439.264,396050.62744899356,1356.195574266938,0.0,2302516.370819098,operational
Luba,Equatorial Guinea,Africa,3.4682851025583217,8.550793055382552,396422231.0314993,0.0,0.0,0.0,0.0,operational
Lubeck-Travemunde,Germany,Western-Europe,53.949510829099744,10.864753228876172,4280899469.1321497,190.81090509117405,0.0,0.0,1209.8744570593465,operational
Luganville,Vanuatu,Oceania,-15.517205910474257,167.19225876677746,113284367.2649478,23.734046872691916,0.0,0.0,124.85202743789887,operational
Lulea,Sweden,Northern-Europe,65.53733541423823,22.282423357728216,2485336480.9801707,1113.041188311669,0.0,0.0,5409.941759621351,operational
Lumut,Brunei,Asia,4.709824976813137,114.43860877181388,1773592117.764743,1379.5088817663493,617.3174079514595,0.0,5876.585471432972,operational
Lumut,Malaysia,Asia,4.207745369282229,100.623426682817,15817075330.35148,0.0,0.0,0.0,0.0,operational
Macae,Brazil,Latin-America,-22.378944157043748,-41.768038083140205,574.9330644040385,1.5108763723327342e-05,0.0,0.0,9.244490225772057e-05,operational
Macau,Macau,Asia,22.16998500439825,113.56242226368484,9524421594.739525,163674.4726934269,0.0,0.0,910382.3900787876,operational
Mackay,Australia,Australia,-21.109129090423508,149.2286872369653,3449265233.750893,6210.121755886082,2012.5653336429525,0.0,25565.38194552636,operational
Madang,Papua New Guinea,Asia,-5.213188576115389,145.81083869573362,199173411.20982903,0.0,0.0,0.0,0.0,operational
Madre De Deus,Brazil,Latin-America,-12.754241847345888,-38.623377790061454,1602677739.3935463,5180.644395736653,0.0,0.0,28396.240507612365,operational
Magam Ruhunupura Mahinda Rajapaksa Port,Sri Lanka,Asia,6.126116007887758,81.09931752132096,1913841251.2146857,0.0,0.0,0.0,0.0,operational
Magdalla,India,Asia,21.1058799255708,72.68414685989755,25013070438.25829,1922.7447155383559,0.0,0.0,19428.17244833724,operational
Mahajanga,Madagascar,Africa,-15.712467927095718,46.30285681576183,22732314.96907816,0.0,0.0,0.0,0.0,operational
Mailiao,Taiwan,Asia,23.78770183823127,120.19069032716376,29372075819.383083,125387.47040486895,86294.89371934567,19944.66891633627,347441.94026618794,operational
Maizuro Ko,Japan,Asia,35.48593127100213,135.3409976788749,1539150.335392253,0.0,0.0,0.0,0.0,operational
Majuro Atoll,Marshall Islands,Oceania,7.096532738829817,171.3646813282716,7895155079.644015,2054.910511521634,917.931963355064,0.0,9019.804021455428,operational
Makhachkala Port,Russia,Eastern-Europe,43.00106648496974,47.4871158432974,133764.48889517016,0.0,0.0,0.0,0.0,operational
Malabo,Equatorial Guinea,Africa,3.773219307989677,8.737834001382202,6088196080.046554,0.0,0.0,0.0,0.0,operational
Malaga,Spain,Mediterranean,36.709267140600026,-4.421971897198486,1721071126.7691224,9139.326140206484,4259.944721966017,101.53408823908927,33807.49716442692,operational
Malai,Fiji,Oceania,-16.353640251282606,179.36922503675189,79943047.47177467,22.21206680544001,0.0,0.0,168.9750481482205,operational
Malakal Harbor,Palau,Oceania,7.332002104688464,134.45529933277714,106055332.20270193,59.77253784712684,0.0,0.0,337.7132410401177,operational
Male,Maldives,Asia,4.199673736864345,73.49130426856117,1352964843.709426,2855.7873688408877,2682.6674519511766,1115.4357148888853,5730.162120361828,operational
Malmo,Sweden,Northern-Europe,55.62802065270463,13.017543479181542,8705491093.471874,21.641483799320895,0.0,0.0,0.0,operational
Malongo,Angola,Africa,-5.397395815577081,12.196117817786154,32449044.00911967,2.016578028059567,0.0,0.0,0.0,operational
Maloy,Norway,Northern-Europe,61.93745646639336,5.128057915986249,177586.6615043785,0.5121012926410501,0.0,0.0,3.4060206947288205,operational
Manaus,Brazil,Latin-America,-3.1620604719227976,-59.949852066214014,1776245133.336896,77553.91463189865,11178.420451253816,321.5969196276848,342104.458796326,operational
Manila,Philippines,Asia,14.573992578921846,120.79498461925688,68693417617.39212,18967.0618360841,0.0,0.0,83203.0041129932,operational
Manokwari Road,Indonesia,Asia,-0.9208695132934868,134.0399003966668,522680674.0682249,0.0,0.0,0.0,0.0,operational
Manta,Ecuador,Latin-America,-0.941668260643472,-80.7131715335259,3486020476.9182677,140.8569063234441,0.0,0.0,1165.281914489974,operational
Mantyluoto,Finland,Northern-Europe,61.6135250259882,21.439346016652053,2970239344.34158,1984.6237316822194,624.8880668526473,0.0,7448.477804405058,operational
Manzanillo,Mexico,Latin-America,19.045406078178868,-104.30307470210654,49020545906.33034,32498.841440432137,18876.912510592814,0.0,115313.80731441193,operational
Manzanillo,Panama,Latin-America,9.360503646778437,-79.88673200944665,5960314360.519427,140.95539202654493,0.0,0.0,589.1020572408441,operational
Map Ta Phut,Thailand,Asia,12.6609112825225,101.15236222857916,54449842819.92632,0.0,0.0,0.0,0.0,operational
Maputo,Mozambique,Africa,-25.969634366464906,32.53916331826376,5576373504.371282,368758.4117761232,102025.49214821577,2829.621298148967,1590366.1416097786,operational
Maracaibo,Venezuela,Latin-America,10.6414760849165,-71.60514846489083,828698919.1109164,8161426.573433395,2090691.5016921016,11354.638260414671,35065976.38111404,operational
Mariel,Cuba,Caribbean,22.999902072528464,-82.76053822799543,1359993641.5098836,8073.95876857224,349.21375739895603,0.0,43333.10780824065,operational
Marin,Spain,Western-Europe,42.39881568321476,-8.69730845324632,629944914.0093106,5183797.470001622,2849156.1028473955,394283.2432517294,18113990.487261217,operational
Marina Di Carrara,Italy,Mediterranean,44.032147600753774,10.04267009021892,8604326.875617394,5.1624908598441595,1.4051685594716743,0.0,23.06450853449483,operational
Mariupol,Ukraine,Eastern-Europe,47.05402539557704,37.503900223805466,1570959795.7461145,12967.768633201553,0.0,0.0,87997.38145162418,operational
Markenes,Norway,Northern-Europe,69.23656191656397,19.361247850591145,225766.859125989,106.6120834229759,36.24045381814517,1.5770254858460775,441.0773486786643,operational
Marmagao,India,Asia,15.409640152325668,73.80735640875793,7198331243.991459,0.0,0.0,0.0,0.0,operational
Marsa Sabratah,Libya,Africa,32.878274160934474,12.24658642786107,991219157.039721,149266.85170347127,73938.9980228531,10689.97779402538,565152.5968225813,operational
Marsaxlokk,Malta,Mediterranean,35.82669474962385,14.543787229768755,5135383885.285762,130836.01140261935,23562.361770093656,1083.3046917732518,750333.0138792853,operational
Marseille,France,Mediterranean,43.32315779060131,5.346629849985812,6806306718.122664,1447664.612089877,371591.7560850084,23445.966721021767,7702425.609654511,operational
Marsh Harbor,Bahamas,Caribbean,26.54374829411521,-77.06272772895558,7830735.094087382,23.747016621035343,15.158666019040146,3.552652884514988,73.20315051487128,operational
Marugame Ko,Japan,Asia,34.29646935891837,133.77321018388815,1667677496.9633074,0.0,0.0,0.0,0.0,operational
Masan,South Korea,Asia,35.18412822595261,128.59079992441258,3043215.4815942417,0.0,0.0,0.0,0.0,operational
Masao,Philippines,Asia,9.494107828336093,125.85861340331871,124095.84498584332,0.0,0.0,0.0,0.0,operational
Matanzas,Cuba,Caribbean,23.06072639858986,-81.53761436892636,209619921.07439047,439.0375833642462,0.0,0.0,2454.916676785492,operational
Matsusaka,Japan,Asia,34.64834479386502,136.54194719136322,929282.4589811964,0.0,0.0,0.0,0.0,operational
Matsuyama,Japan,Asia,33.810438301844194,132.69492950156638,1111019880.2638185,0.0,0.0,0.0,0.0,operational
Matthew Town,Bahamas,Caribbean,21.0080932214398,-73.66853998991493,44547991.69088982,367.92595594891014,167.9064933910032,0.0,1628.329797587438,operational
Maumere,Indonesia,Asia,-8.6244535523396,122.23718210216876,55239.257196028746,0.0,0.0,0.0,0.0,operational
Mazatlan,Mexico,Latin-America,23.189539470635,-106.41026606620578,7035708880.795194,27.306370220998794,0.0,0.0,152.8723556417201,operational
Mbulo,Solomon Islands,Oceania,-9.63808543357328,160.64866226407668,5476245.752663836,0.0,0.0,0.0,0.0,operational
Medway,United Kingdom,Western-Europe,51.43531276696483,0.7452941193429828,2929507.9716727715,0.07674021391015358,0.0,0.0,0.5107283353226064,operational
Medway City,United Kingdom,Western-Europe,51.39204492579663,0.5133461763983214,236702.7442172096,0.0019390674385178976,0.0,0.0,0.0132140447607103,operational
Mejillones,Chile,Latin-America,-23.068917801192686,-70.40605288856243,13552633607.544855,0.0,0.0,0.0,0.0,operational
Melbourne,Australia,Australia,-37.83519282067609,144.91341994626055,31171376833.519222,0.0,0.0,0.0,0.0,operational
Menominee,U.S.A.,North-America,45.09547763394705,-87.5927222150371,9539433.62891942,1.145613278882404,0.0,0.0,6.472525048138483,operational
Merak Mas Terminal,Indonesia,Asia,-5.941636439592424,106.10001079534256,10162243234.372992,0.0,0.0,0.0,0.0,operational
Merauke,Indonesia,Asia,-8.473712756355013,140.38134569324313,51676.4788878276,0.0,0.0,0.0,0.0,operational
Mersa Sfax,Tunisia,Africa,34.724911139393086,10.76961985579142,4286300754.153525,323594.6349872666,122713.73226397076,20060.009118602666,1240505.30015546,operational
Mersa Tobruq,Libya,Africa,32.070355327544576,23.988563457198783,4561790508.284585,215301.83837632174,99267.96795434716,9932.181120226513,735702.2245122353,operational
Mersin,Turkey,Mediterranean,36.79518784395411,34.64468646253938,13365596456.110275,0.0,0.0,0.0,0.0,operational
Miami,U.S.A.,North-America,25.769177913641343,-80.19528554795146,24017796722.83646,4394.480424257359,1271.4515386480311,0.0,17636.61107386218,operational
Mikawa,Japan,Asia,34.709615777036284,137.29689486945338,23653102055.7213,0.0,0.0,0.0,0.0,operational
Milazzo,Italy,Mediterranean,38.21363037769039,15.263505484387716,6651116193.572648,8597.49446131387,1353.2853163511395,0.0,48067.71346232532,operational
Milford Haven,United Kingdom,Western-Europe,51.6970067212492,-5.020471285979246,29652379871.368137,2793634.8000663863,1537435.1032622438,206025.3418767987,11465124.42706137,operational
Milner Bay,Australia,Australia,-13.858179836535554,136.41893828325453,1191904780.6698964,0.0,0.0,0.0,0.0,operational
Milwaukee,U.S.A.,North-America,43.01943778766263,-87.89291943716971,391320773.4588126,607.3972144204654,314.20463575144686,0.0,2286.181348363515,operational
Mina Al Ahmadi,Kuwait,Middle-East,29.07276586772993,48.15807837782575,45423803689.35805,0.0,0.0,0.0,0.0,operational
Mina Jabal Ali,United Arab Emirates,Middle-East,25.007358961173885,55.05478211500699,75936830328.97676,0.0,0.0,0.0,0.0,operational
Mina Qabus,Oman,Middle-East,23.627433095902443,58.56730438127944,33864.292182510624,0.006337844785083578,0.0059266568451687,0.0,0.0163118252207224,operational
Mina Raysut,Oman,Middle-East,16.938792360792416,54.00766066736667,15576157719.64815,0.0,0.0,0.0,0.0,operational
Mina Saqr,United Arab Emirates,Middle-East,25.96439363353301,56.05171007132456,13903560360.862663,0.0,0.0,0.0,0.0,operational
Mina Tarabulus (Tripoli),Libya,Africa,32.90597537115696,13.201592074231552,1167263618.045619,23120.657134868754,13911.870022103529,2735.148430556972,70226.05508848796,operational
Mishima-Kawanoe Ko,Japan,Asia,34.00466410734461,133.55221206031757,2407740202.953296,0.0,0.0,0.0,0.0,operational
Misratah,Libya,Africa,32.357612490808634,15.22891690737466,4557270674.211689,41073.94741694739,24562.88481575504,3415.7067506814324,120510.14183358758,operational
Mitsiwa Harbor,Eritrea,Africa,15.600510033047817,39.46153076631569,760104580.7107927,0.0,0.0,0.0,0.0,operational
Mizushima Ko,Japan,Asia,34.48581319664202,133.72684553779845,35782726971.10529,0.0,0.0,0.0,0.0,operational
Mo Inlet,Norway,Northern-Europe,66.30665850106024,14.098167365997591,2186718200.2864485,0.0,0.0,0.0,0.0,operational
Mobile,U.S.A.,North-America,30.62518238600796,-88.05924221540512,30887874464.032097,1237735.8846468478,155189.44524845193,0.0,6258871.093689058,operational
